Municipio_mapa,UF,Latitude,Longitude,Pop_2018,Area,Pop_por_Area,Leitos_por_Mil_Hab,Dominios_Internet_por_Mil_Hab,Atração_Geral,Coef_Gestao_Empresarial,PIB,media_KMG2
ABADIA DOS DOURADOS MG,MG,-18.4911191,-47.4063589,6972,881.064,7.913159543461088,2.43832472748135,1.28773787380169,1085.66497301129,,180089,0.025489519656748037
ABADIANIA GO,GO,-16.1940946,-48.7067767,19614,1045.127,18.76709720445458,0.458855919241358,2.64444666200978,0.0,,287984,0.0055952923973325
ABAETE MG,MG,-19.1566833,-45.4481213,23223,1817.067,12.780486355208696,1.98079490160617,6.06790893833111,9603.00473504788,145.0,430235,0.0222642846583095
ABAETETUBA PA,PA,-1.721828,-48.878843,156292,1610.651,97.0365398835626,1.68274767742431,0.659488389199609,63939.2728302815,200.0,1249255,0.018034282806402353
ABAIARA CE,CE,-7.3607808,-39.0487878,11663,180.08,64.76565970679698,0.0857412329589299,0.170401295049842,1006.47225407532,,73151,0.00096213142113385
ABAIRA BA,BA,-13.2503296,-41.6640342,8767,538.677,16.275059079931015,1.02657693623817,2.51745050921158,3392.50241080384,,64325,0.011288530347583215
ABARE BA,BA,-8.7239913,-39.1139689,19814,1604.923,12.34576362853545,1.21126476228929,0.697002887583391,1301.58890196078,,124754,0.012694465683632642
ABATIA PR,PR,-23.3052967,-50.3102532,7507,228.717,32.822221347779134,2.93059810843213,2.41383934558133,351.950952380952,,165048,0.03085887334231463
ABDON BATISTA SC,SC,-27.612419,-51.022992,2577,237.164,10.865898703007202,0.0,2.34100663285213,121.496666666667,,64742,0.0006955550881834197
ABEL FIGUEIREDO PA,PA,-4.953001,-48.3958485,7382,614.131,12.020236724737885,2.30289894337578,0.538068334678504,1505.71997929606,,79658,0.023839926489742907
ABELARDO LUZ SC,SC,-26.5705893,-52.3280339,17847,953.992,18.70770404783269,2.3533366952429,5.08266309204647,3248.58339701967,119.0,604280,0.02588855507521738
ABRE CAMPO MG,MG,-20.295421,-42.480131,13465,470.551,28.61538919266987,4.90159673226885,2.45280214062732,3509.26226051164,,187904,0.05112245136813051
ABREULANDIA TO,TO,-9.6221526,-49.1558343,2564,1895.212,1.3528829492426178,0.0,2.32648313299729,358.272792022792,,47378,0.0006835715537658342
ACAIACA MG,MG,-20.3621646,-43.1444162,3994,101.886,39.20067526451132,0.0,2.25338007010516,439.074074074074,,36424,0.0006578132094250478
ACAILANDIA MA,MA,-4.9514278,-47.4844564,111757,5806.439,19.247080697825293,1.88802491119125,2.73022366490284,69283.8962868982,298.0,1999546,0.021071034920034214
ACAJUTIBA BA,BA,-11.6609659,-38.0186381,15129,181.475,83.36685493869679,0.528785775662635,0.461771884688964,1303.00668311066,,115158,0.005614117965729083
ACARA PA,PA,-1.961388,-48.1987043,55513,4343.55,12.780559680445718,0.594455352800245,0.0539655699663615,2518.89333333333,,788416,0.006476843273360603
ACARAU CE,CE,-2.8869514,-40.1194713,62557,845.468,73.99097304688054,1.16693575459181,1.34097476093932,22264.6003774352,135.0,580727,0.012628627503153845
ACARI RN,RN,-6.4364689,-36.6394777,11152,608.466,18.32805777151065,3.58680057388809,2.69396551724138,6194.75363619827,,108583,0.03765227416457309
ACAUA PI,PI,-8.219542,-41.083059,7065,1279.586,5.5213170509836775,0.0,0.423489553924337,1422.92220671977,,42603,0.00013979162074229137
ACOPIARA CE,CE,-6.0936464,-39.4543204,53931,2265.349,23.8069277625655,1.89130555710074,0.571217984153307,11165.3179937497,79.0,371701,0.01975432420993025
ACORIZAL MT,MT,-15.2001544,-56.3668953,5424,1014.029,5.348959447905336,0.0,0.555658455269494,69.7166666666666,,70837,0.00019017295958439473
ACRELANDIA AC,AC,-10.0759167,-67.0526898,15020,1807.948,8.307761063924405,1.06524633821571,2.03198741478762,1358.15648148148,,227611,0.01162131322998214
ACREUNA GO,GO,-17.3959899,-50.3749031,22182,1565.997,14.164778093444625,3.2458750338112,3.26388267906644,2500.23727834208,68.0,614411,0.034541850951406855
ACU RN,RN,-5.5836157,-36.9139541,57644,1303.442,44.22444573674932,0.919436541530775,2.89570298360825,51318.1906598048,206.0,783644,0.010621044941228681
ACUCENA MG,MG,-19.073056,-42.546666,9575,815.422,11.742386150974587,0.0,1.05596620908131,677.589682363827,,94656,0.0003433363448383332
ADELANDIA GO,GO,-16.4155077,-50.1665834,2517,115.353,21.81997867415672,0.0,2.38473767885533,10.095,,31964,0.0006931833274717731
ADOLFO SP,SP,-21.2356597,-49.6441918,3571,211.055,16.919760252066997,0.0,5.89556428972487,335.803655683925,,86466,0.0017170578760087097
ADUSTINA BA,BA,-10.5358875,-38.114479,16784,632.139,26.551122458826303,1.13203050524309,0.704225352112676,955.551111111111,,101478,0.011872262866432698
AFOGADOS DA INGAZEIRA PE,PE,-7.7481283,-37.6346614,37111,377.696,98.25626959247649,4.87726011155722,3.97219463753724,46783.8246993537,110.0,385649,0.05139435337896848
AFONSO BEZERRA RN,RN,-5.4745,-36.57625071327935,11041,576.18,19.162414523239267,2.445430667512,0.181241504304486,329.777777777778,,84785,0.02520448670692657
AFONSO CLAUDIO ES,ES,-20.077841,-41.12606,30720,941.188,32.63960016489798,1.92057291666667,3.69450075197803,5020.24226638008,84.0,472477,0.02098939316664358
AFONSO CUNHA MA,MA,-4.1326105,-43.3230026,6469,371.338,17.420786453312076,2.31875096614624,0.153280196198651,0.0,,35459,0.02387322864088199
AFRANIO PE,PE,-8.5198919,-41.0070197,19456,1490.594,13.0525146351052,2.31291118421053,0.0509294626941686,3615.64049095607,,150340,0.02383605892787616
AFUA PA,PA,-0.1535664,-50.3879223,38863,8338.438,4.660705038521603,0.771942464554975,0.0254984955887603,9741.44469987227,,315991,0.008077959691945406
AGRESTINA PE,PE,-8.4558021,-35.9442663,24702,200.581,123.15224273485524,5.38417941867055,2.04942736588306,3613.55738263133,,220690,0.055978590796650164
AGRICOLANDIA PI,PI,-5.7967843,-42.6605131,5148,112.392,45.803971812940425,2.91375291375291,0.0,1261.82810362996,,29519,0.029937587383623242
AGROLANDIA SC,SC,-27.4120688,-49.8294621,10711,206.914,51.76546777888398,1.96060125105032,15.9241531664212,807.696147893306,,225802,0.024769714470011167
AGUA AZUL DO NORTE PA,PA,-6.8064885,-50.4849667,27241,7113.955,3.8292342304667377,1.46837487610587,0.4010207801677,3745.87293523746,,432114,0.015389696902661041
AGUA BOA MG,MG,-17.9968063,-42.3904573,13600,1320.258,10.301016922450003,1.10294117647059,0.582453585729887,2780.84323915128,,134248,0.011553672014361601
AGUA BOA MT,MT,-14.0522968,-52.1617625,25229,7510.635,3.3591034579632746,3.88441872448373,7.58135375762995,17842.2746584236,216.0,899990,0.04245761799592247
AGUA BRANCA AL,AL,-9.2613606,-37.9361053,20162,468.225,43.060494420417534,1.23995635353636,0.396118043176867,1259.49666666667,,126228,0.012904158236436737
AGUA BRANCA PB,PB,-7.5151046,-37.6394034,10161,236.608,42.94444820124425,1.96831020568842,0.488567520031268,2605.34054189714,,75121,0.020387560371818537
AGUA BRANCA PI,PI,-5.8913922,-42.6361148,17349,97.041,178.7801032553251,1.15280419620727,1.26356900809833,25504.5464843714,100.0,174731,0.012277922723125499
AGUA CLARA MS,MS,-20.4385757,-52.8797496,15257,7784.924,1.959813608970364,1.11424264272137,2.96353562685221,2451.85223203208,172.0,1117992,0.012792161969831297
AGUA COMPRIDA MG,MG,-20.0574733,-48.1093074,2005,492.167,4.073820471506623,0.0,3.50175087543772,13.17,,135803,0.001058046037844915
AGUA DOCE DO MARANHAO MA,MA,-2.8402004,-42.1181949,12488,443.267,28.17263635686844,0.0,0.0,1907.5,,73287,3.313161144149901e-05
AGUA DOCE DO NORTE ES,ES,-18.54822,-40.979012,11131,473.729,23.49655604786703,0.0,1.63354206370814,1344.24887198321,,144470,0.0005302432486078586
AGUA DOCE SC,SC,-26.9986047,-51.5529306,7138,1313.974,5.43237537424637,4.20285794340151,5.87823652904129,428.181079057661,,317938,0.04498012114655395
AGUA FRIA BA,BA,-11.8784691,-38.7663706,16901,743.014,22.74654313377675,1.18336193124667,0.824985268120212,360.154075145214,,138677,0.01245062367777639
AGUA FRIA DE GOIAS GO,GO,-14.9803368,-47.7824312,5676,2029.416,2.7968637282843933,2.11416490486258,0.871839581517001,21.7666666666667,,276417,0.022085575220452118
AGUA LIMPA GO,GO,-18.0755648,-48.7620637,1872,452.858,4.133746119092519,0.0,1.08108108108108,51.8700000000001,,43637,0.0003274197372292332
AGUA NOVA RN,RN,-6.2063221,-38.2912678,3230,50.684,63.7281982479678,0.0,1.53751537515375,133.01037037037,,24568,0.00044870723949838435
AGUA PRETA PE,PE,-8.7079109,-35.5198586,36454,533.332,68.35142087855219,1.37159159488671,0.299148785727883,1861.89623463295,,256149,0.014287187951680188
AGUA SANTA RS,RS,-28.1775297,-52.0360304,3753,291.503,12.874653091048806,0.0,2.13447171824973,16.92,,283322,0.0007355877934439313
AGUAI SP,SP,-22.0592036,-46.979384,35954,474.554,75.7637697711957,0.278133170161873,7.05137033466465,628.405064678999,123.0,764288,0.005208875711778695
AGUANIL MG,MG,-20.9424533,-45.3927152,4448,232.091,19.1648965276551,0.0,1.11457868925546,2627.8570654032,,64778,0.00034651110220562415
AGUAS BELAS PE,PE,-9.1113156,-37.1225218,43195,885.988,48.75348198846937,0.694524829262646,0.575466703496536,4729.85618075252,,313427,0.007438250856536589
AGUAS DE LINDOIA SP,SP,-22.4718855,-46.6291034,26463,108.882,243.04292720559872,1.58712164153724,29.0800074948473,17115.6787667654,169.0,607019,0.02485077812864621
AGUAS DE SANTA BARBARA SP,SP,-22.8821912,-49.2383956,6040,404.463,14.933380803682908,0.0,8.39506172839506,2015.23632098565,,157569,0.0024605975688529284
AGUAS FORMOSAS MG,MG,-17.083056,-40.935555,19166,820.079,23.37091914315572,3.39142231034123,2.39496017077107,13390.0054435928,80.0,222103,0.035611958035780454
AGUAS FRIAS SC,SC,-26.8817187,-52.8599756,2378,76.744,30.98613572396539,0.0,4.64919695688926,31.5420122620309,,87691,0.0013628763566108626
AGUAS VERMELHAS MG,MG,-15.7469091,-41.4601975,13477,1256.607,10.724912403002689,3.48742301699191,0.29544279488884,567.593,,184041,0.035983123265964936
AGUDO RS,RS,-29.6423259,-53.2494005,16524,534.624,30.907703357873945,3.20745582183491,5.10297065791872,5940.9956692587,112.0,423647,0.03458447772400828
AGUDOS DO SUL PR,PR,-25.9890808,-49.3328175,9269,192.261,48.21050551073801,0.0,3.09465371892007,102.585813953488,,167967,0.0009567206359311886
AGUDOS SP,SP,-22.4719836,-48.9884476,37023,966.708,38.298017602005984,1.62061421278665,11.5279196001505,4437.55287261619,141.0,2562986,0.02108340680317564
AGUIA BRANCA ES,ES,-18.9847265,-40.7391844,9653,454.448,21.24115410343978,0.0,1.65940676208256,5153.56488941676,50.0,165778,0.0005472376674415857
AGUIAR PB,PB,-7.0928404,-38.1727215,5571,344.708,16.16150480986806,2.15401184706516,0.0,126.011111111111,,44348,0.02214175052801366
AIMORES MG,MG,-19.4917754,-41.0615603,25193,1348.913,18.676519538324563,2.10375898066923,2.66221639448484,10648.2901675403,80.0,410203,0.02254875718378689
AIQUARA BA,BA,-14.126918,-39.8887574,4478,167.877,26.67429129660406,2.90308173291648,0.449842555105713,0.0,,49816,0.029965202342811095
AIUABA CE,CE,-6.5710836,-40.1212278,17303,2434.423,7.107639058618819,1.67600994047275,0.517271107534916,921.852600770238,,101674,0.01740581021976081
AIURUOCA MG,MG,-21.9759554,-44.6036637,6032,649.68,9.28457086565694,4.97347480106101,11.8274196235216,4693.01492127984,,98629,0.054488440023319776
AJURICABA RS,RS,-28.239654,-53.7693013,7063,322.671,21.88916884380685,6.93756194251734,3.13211845102506,369.716666666667,,263539,0.07225935104640775
ALAGOA GRANDE PB,PB,-7.0415212,-35.6285322,28623,320.563,89.28978079191923,1.60709918596933,1.08787198203257,2357.55000005528,,239657,0.016922877959100892
ALAGOA MG,MG,-22.1697202,-44.6400042,2683,161.356,16.627829147970946,6.33619083115915,5.6095736724009,210.229459459459,,31436,0.06668346240168446
ALAGOA NOVA PB,PB,-7.0653703,-35.76695977336711,20589,123.731,166.4013060591121,1.35994948759046,0.431675380114154,354.934126984127,,250857,0.01420295020825293
ALAGOINHA DO PIAUI PI,PI,-7.0090952,-40.939675,7636,535.807,14.251400224334509,1.57150340492404,0.130701869036727,635.183842142395,,45834,0.016197260381326586
ALAGOINHA PB,PB,-6.97063215,-35.51490901897793,14367,96.98,148.1439472056094,0.0,0.621160880668093,1765.54787344324,,99564,0.00022180286933870272
ALAGOINHA PE,PE,-8.50355635,-36.77702243002451,14554,216.452,67.23892595125017,0.755805963996152,0.273298715496037,121.986666666667,,118971,0.007893696718688512
ALAGOINHAS BA,BA,-12.133526,-38.420772,150832,707.558,213.17263037093767,1.68399278667657,5.87086730520594,139007.951037905,414.0,3177575,0.02040206424273339
ALBERTINA MG,MG,-20.66164,-43.784039,3003,58.01,51.76693673504568,0.0,1.6627868307283,0.0,,78420,0.0005087068531573073
ALCANTARA MA,MA,-2.4084996,-44.4174143,22083,1168.246,18.902696863503063,1.08680885749219,0.181020047970313,984.259259259259,,117495,0.011266165235870138
ALCANTARAS CE,CE,-3.586247,-40.5457641,11529,138.605,83.17881750297609,0.0,0.768311422229811,225.45,,59582,0.00024560910140567887
ALCANTIL PB,PB,-7.7425491,-36.0609604,5473,305.988,17.88632233943815,0.0,0.546249089584851,690.51258636788,,38957,0.00017308258830156943
ALCINOPOLIS MS,MS,-18.3264121,-53.7094463,5268,4399.681,1.1973595358390756,0.0,1.49728616881902,158.126666666667,,157013,0.0004971331683078635
ALCOBACA BA,BA,-17.5215875,-39.1965474,22449,1482.285,15.14486080612028,2.62817942892779,0.801068090787717,4287.96872442404,,260134,0.027337000503468777
ALDEIAS ALTAS MA,MA,-4.6291957,-43.4708622,26302,1942.121,13.54292549228395,0.950498060983956,0.414593698175788,7127.3109937838,,169252,0.009956130331869236
ALECRIM RS,RS,-27.6566142,-54.7653195,6077,316.51,19.200025275662696,8.2277439526082,1.17647058823529,368.218352941176,,101174,0.08487951079796277
ALEGRE ES,ES,-20.7053862,-41.5865473,30568,772.0,39.59585492227979,1.63569746139754,4.68687674511368,20079.681186633,85.0,487304,0.01835287071111194
ALEGRETE DO PIAUI PI,PI,-7.2440138,-40.8602296,4912,243.732,20.15328311424023,0.0,0.610376398779247,1916.49133094378,,34019,0.00018910183438274479
ALEGRETE RS,RS,-29.790166,-55.794862,74173,7800.163,9.50916025729206,2.3189031049034,6.11504436804414,16720.4229822785,301.0,1853528,0.026393514149519414
ALEGRIA RS,RS,-27.8332103,-54.0574959,3559,172.396,20.64433049490708,0.0,3.46420323325635,170.630555555556,,106799,0.0010342472632152867
ALENQUER PA,PA,-1.946229,-54.738355,56480,23645.452,2.388620018767245,1.71742209631728,0.440226100125024,4314.22757907542,,659490,0.01806136250948573
ALEXANDRIA RN,RN,-6.414779,-38.0135516,13602,381.205,35.68158864652877,9.11630642552566,1.91500331442881,5362.137679518,,118765,0.09422319771589797
ALEXANIA GO,GO,-16.0834049,-48.5077803,27288,847.893,32.18330614829937,1.24596892406919,3.94170614399884,1530.72933333333,172.0,1400948,0.014551312100231889
ALFENAS MG,MG,-21.4297405,-45.9479419,79481,850.446,93.45802085023622,5.25911853147293,20.7135356767838,147567.000424038,361.0,2294655,0.06094390664054815
ALFREDO CHAVES ES,ES,-20.6249704,-40.75006690147988,14566,615.677,23.658509250792218,0.0,7.6022190260941,1753.17,,350114,0.0023219881461176363
ALFREDO WAGNER SC,SC,-27.6950606,-49.3310844,9984,735.371,13.576820407658175,2.40384615384615,5.97847748106815,619.444803892701,,271765,0.026511926279671638
ALGODAO DE JANDAIRA PB,PB,-6.9040175,-36.0089879,2488,220.248,11.296356834114272,0.0,0.0,56.5481481481481,,23154,1.0467468054586324e-05
ALHANDRA PB,PB,-7.4304246,-34.9106103,19391,182.663,106.15724038256242,0.773554741890568,2.34837655707576,2372.55737302289,,864001,0.009003389156929276
ALIANCA DO TOCANTINS TO,TO,-11.3055927,-48.9409096,5434,1579.751,3.4397825986500403,0.0,0.742115027829313,2722.36584171546,,94300,0.0002538485295753817
ALIANCA PE,PE,-7.6026425,-35.2263514,38375,272.773,140.6847451910563,0.677524429967427,0.651279112176314,3550.26534431542,,320138,0.00728826804475151
ALMADINA BA,BA,-14.7025806,-39.6383321,5566,245.236,22.69650459149554,0.0,0.915080527086384,446.582408157145,,55434,0.00028550661740845
ALMAS TO,TO,-11.5681309,-47.1702803,7131,4013.243,1.7768672367957783,0.0,0.283486888731396,1805.7408757526,,125459,0.00013740227649924395
ALMENARA MG,MG,-16.1740678,-40.6904907,41642,2294.426,18.149201586802103,3.4100187310888,2.55394309719305,60144.0709772571,128.0,474544,0.035962315875216706
ALMINO AFONSO RN,RN,-6.1544208,-37.7649018,4761,128.038,37.18427341882878,10.501995379122,0.211193241816262,1371.79148148148,,34009,0.10793097618941151
ALMIRANTE TAMANDARE DO SUL RS,RS,-28.1141129,-52.9134874,1979,265.327,7.458720748359571,0.0,4.58248472505092,542.4115002405,,137834,0.0013665576932778958
ALOANDIA GO,GO,-17.7277983,-49.4809338,2005,102.16,19.62607674236492,6.98254364089776,6.01503759398496,0.0,,38746,0.0734402117349312
ALPERCATA MG,MG,-18.9803616,-41.9827637,7411,166.972,44.38468725295259,0.0,1.48168103448276,6540.9386899525,,76613,0.0004563444481391798
ALPESTRE RS,RS,-27.2512339,-53.0349646,6458,325.979,19.81109212556637,4.80024775472282,2.55672738894215,1472.1689578605,,451529,0.050230355771317015
ALPINOPOLIS MG,MG,-20.863611,-46.387777,19745,454.751,43.41936576280207,1.77260065839453,4.58369012239964,5027.7516023435,77.0,347427,0.019666262403074244
ALTA FLORESTA MT,MT,-9.8698547,-56.0834993,51615,8953.191,5.764983680120305,2.1505376344086,8.6323432853115,46450.1776927798,270.0,1583783,0.025258916357359523
ALTAIR SP,SP,-20.5238955,-49.0606135,4134,313.007,13.20737235908462,0.0,0.240384615384615,582.68670301767,,200101,0.00015887888668698877
ALTAMIRA DO MARANHAO MA,MA,-4.1643006,-45.4674574,8066,524.373,15.382180241927024,0.0,0.246062992125984,1943.23240641205,,62194,9.814999743943516e-05
ALTAMIRA DO PARANA PR,PR,-24.7988854,-52.7131879,2209,386.945,5.708821667162,8.60117700316885,1.02986611740474,129.5125,,71752,0.08865964123178045
ALTAMIRA PA,PA,-3.204065,-52.209961,113195,159533.328,0.7095382602436526,2.05839480542427,3.04553467022706,117510.815635837,470.0,2472773,0.02312441271710248
ALTANEIRA CE,CE,-6.9980933,-39.7385742,7521,73.295,102.61272938126748,2.52625980587688,0.79093066174532,129.333333333333,,45212,0.026190238696915395
ALTEROSA MG,MG,-21.249166,-46.143055,14414,362.01,39.81657965249579,2.08130983765783,6.01410203235172,2013.49594848247,,212752,0.02318293899102963
ALTINHO PE,PE,-8.4904095,-36.0607494,22959,452.523,50.73554272379525,0.784006272050176,0.957687619710953,532.740343837041,,139837,0.008387534601853248
ALTINOPOLIS SP,SP,-21.021364,-47.3712,16164,928.956,17.400178264632554,1.91784211828755,11.6164112703905,1745.03383084577,89.0,462342,0.023211463642191045
ALTO ALEGRE DO MARANHAO MA,MA,-4.2055693,-44.4525287,26839,383.308,70.01940997839857,1.78844219233205,0.0369644771374709,12504.7065778481,,217024,0.018475934256544566
ALTO ALEGRE DO PINDARE MA,MA,-3.6698186,-45.8462153,31894,1876.032,17.0007761061645,2.16341631654857,0.281963720667941,3483.13518518519,,175650,0.022377944694435166
ALTO ALEGRE DOS PARECIS RO,RO,-12.1314515,-61.856265,13227,3958.273,3.341608827890345,1.20964693430105,0.453137980515067,0.0,,230030,0.012656036095121385
ALTO ALEGRE RR,RR,2.98858,-61.307167,15638,25753.487,0.6072187428444156,0.767361555186085,0.128949065119278,8991.56076651539,,248754,0.008029960850942017
ALTO ALEGRE RS,RS,-28.78345515,-53.00191079167412,1663,115.335,14.4188667793818,0.0,1.22100122100122,282.921333333333,,66046,0.0003773738298737616
ALTO ALEGRE SP,SP,-21.5820592,-50.1661976,4110,318.574,12.901241155900983,5.35279805352798,2.68358136130764,335.807554416918,,102142,0.0557832009405082
ALTO ARAGUAIA MT,MT,-17.3156528,-53.2169365,27276,6755.108,4.03783329592954,3.59290218507112,2.94964028776978,12616.3222508788,115.0,1046860,0.03821188326416433
ALTO BELA VISTA SC,SC,-27.4320737,-51.905771,1948,103.962,18.73761566726304,0.0,2.58131130614352,59.094,,48854,0.0007567668428497416
ALTO BOA VISTA MT,MT,-11.6723985,-51.3744431,6659,2240.438,2.972186688495732,0.0,1.61243037232483,1353.08026202775,,106462,0.0005070518671083563
ALTO CAPARAO MG,MG,-20.4405661,-41.8683799,5799,103.69,55.92631883498891,0.0,8.38036599965794,2126.49685452333,,87283,0.0024246400200071943
ALTO DO RODRIGUES RN,RN,-5.290868,-36.7616726,14326,191.334,74.87430357385514,1.46586625715482,1.51421295340354,4623.45150728495,84.0,426213,0.015678097278518887
ALTO FELIZ RS,RS,-29.3785943,-51.3123751,3020,78.852,38.2995992492264,0.0,3.63276089828269,0.0,,83125,0.0010715188180483372
ALTO GARCAS MT,MT,-16.9469683,-53.529427,11868,3865.971,3.069862655462237,0.0,1.74563591022444,1210.34091676031,56.0,586397,0.0007619333876326868
ALTO HORIZONTE GO,GO,-14.1954948,-49.3366993,6218,503.764,12.343081284093346,0.0,1.87090739008419,1271.36166666667,,392194,0.0007097922209408576
ALTO JEQUITIBA MG,MG,-20.423611,-41.966111,8333,152.272,54.724440474939584,0.0,3.72730551881688,3454.61424281215,,103913,0.0011078255175692162
ALTO LONGA PI,PI,-5.2549051,-42.2072388,14268,1737.836,8.210210859943055,0.981216708718811,0.209731543624161,3006.40402228777,,86718,0.010175991924904893
ALTO PARAGUAI MT,MT,-14.513712,-56.4936374,11238,1844.817,6.091661124111497,0.0,0.17611835153223,1366.73819659709,,108795,9.931007230210823e-05
ALTO PARAISO DE GOIAS GO,GO,-14.1304779,-47.5100161,7558,2593.905,2.9137535877374074,2.24927229425774,44.5960125918153,2975.35870848564,,160143,0.035865135239094785
ALTO PARAISO PR,PR,-23.508137,-53.728537,2799,967.772,2.892210148671381,0.0,1.45932141554177,5196.06197801179,,83354,0.0004530280301262653
ALTO PARAISO RO,RO,-9.7240103,-63.3188123,20999,2651.822,7.918706459181649,0.761941044811658,0.980026134030241,871.71125,60.0,287085,0.008233850527986536
ALTO PARANA PR,PR,-23.131247,-52.318893,14679,407.719,36.00273717928279,1.3624906328769,2.2342586323629,2477.14917230658,,269870,0.01475068609937598
ALTO PIQUIRI PR,PR,-24.0239021,-53.4417448,9896,447.666,22.10576635259323,0.0,5.18503456689711,162.392727604018,,252998,0.001590116027855386
ALTO RIO DOCE MG,MG,-21.0239537,-43.4133507,11146,518.053,21.515173157958746,1.52521083796878,0.818181818181818,2463.24199390544,,133935,0.01595733181834747
ALTO RIO NOVO ES,ES,-19.0577208,-41.0171518,7798,227.617,34.25930400629127,0.0,1.14854517611026,1853.21185553266,,85451,0.00036552434367164555
ALTO SANTO CE,CE,-5.5190371,-38.2719351,17096,1338.205,12.775322166633662,1.9302760879738,1.34142073953109,3759.94576174673,,133551,0.020266100183896317
ALTO TAQUARI MT,MT,-17.8269099,-53.2831736,10557,1440.399,7.329219195514577,2.84171639670361,2.85793306905135,1209.33272046854,85.0,1038520,0.03046733358231647
ALTONIA PR,PR,-23.8722004,-53.894037,21933,661.56,33.153455468891714,1.68695572881047,6.93688792165397,3351.41820912314,112.0,334561,0.01945062880737891
ALTOS PI,PI,-5.0393915,-42.4611694,40440,957.654,42.22819515190246,0.914935707220574,1.11045306485046,17561.6829118615,92.0,346462,0.009869070396000577
ALVARAES AM,AM,-3.214786,-64.8143124,15860,5923.461,2.6774887181666256,1.38713745271122,0.187020759304283,5248.98867404201,,147946,0.014366014101786014
ALVARENGA MG,MG,-19.4175,-41.728334,3973,278.173,14.282478889036678,0.0,0.255950857435372,99.2600000000003,,37585,8.983899108686312e-05
ALVARO DE CARVALHO SP,SP,-22.0787992,-49.7194861,5179,153.662,33.7038435006703,0.0,6.31337287162809,94.608,,49593,0.0018193030680852891
ALVINLANDIA SP,SP,-22.4431852,-49.7643596,3206,84.879,37.77141578011051,0.0,3.41402855369336,123.77103117506,,47169,0.00099300922717413
ALVINOPOLIS MG,MG,-20.1105199,-43.0601805,15239,599.443,25.421933361470565,2.09987531990288,3.35460106557916,1623.2710412339,,268755,0.022641989458091125
ALVORADA DE MINAS MG,MG,-18.7318587,-43.3641479,3606,374.008,9.641504994545572,0.0,1.10926234054354,630.366037037037,,47223,0.00033706171730798936
ALVORADA DO GURGUEIA PI,PI,-8.4465288,-43.8655915,5392,2131.921,2.5291743924845247,0.0,0.922679461155195,106.957818930041,,52281,0.0002862439816578529
ALVORADA DO SUL PR,PR,-22.7807269,-51.2307721,11306,424.25,26.64938126104891,1.41517778170883,3.15623356128354,314.352945736434,,244452,0.015542700388949516
AMAJARI RR,RR,3.6523869,-61.4194315,12394,28472.31,0.435300121416211,0.0,0.547045951859956,14461.0340740741,,139171,0.0002186141661609387
AMAMBAI MS,MS,-23.1082701,-55.2284854,38958,4202.324,9.270584562256504,3.25992094050003,3.68057670829526,19696.419535241,172.0,877582,0.03492367437808922
AMAPA AP,AP,2.0529997,-50.7930003,9029,8454.847,1.0679081478352004,4.09790674493299,0.439126138983423,2661.50658302603,37.0,143556,0.04227538316983814
AMAPA DO MARANHAO MA,MA,-1.6762114,-46.0109669,6918,502.402,13.769849642318304,0.0,0.143636885952313,628.398842592592,,48652,6.287587995245878e-05
AMAPORA PR,PR,-23.094272,-52.786597,6181,384.735,16.065603597281246,2.10321954376314,1.59821000479463,1750.99778826168,,102760,0.022101395644785207
AMARAJI PE,PE,-8.373925,-35.4536527,22788,234.956,96.98837229098214,1.36036510444093,0.963686539051207,1590.00285562633,,187138,0.01432983104712249
AMARAL FERRADOR RS,RS,-30.8750633,-52.2542051,6974,505.983,13.783071763280583,0.0,0.853363675152894,0.0,,110248,0.00029272138328874825
AMARALINA GO,GO,-13.9236199,-49.2962411,3778,1343.237,2.812608646128717,0.0,0.0,64.3066666666667,,51044,2.307598857123194e-05
AMARANTE DO MARANHAO MA,MA,-5.56913,-46.747284,41136,7438.217,5.530357611239361,1.96907817969662,0.168939302522022,5793.05688997255,,285206,0.020399451653801248
AMARGOSA BA,BA,-13.0302189,-39.6040692,37031,431.673,85.78484176680033,1.40422888930896,2.95373378802932,20775.5401183621,,338286,0.015415041219218793
AMATURA AM,AM,-3.3640509,-68.1994689,11332,4754.109,2.383622251824685,1.67666784327568,0.0,4226.46495243771,,66232,0.017249320935126038
AMELIA RODRIGUES BA,BA,-12.4015388,-38.7516971,25224,173.484,145.39669364321782,0.634316523945449,1.55366106286352,2021.33594506976,60.0,280400,0.007083389867556149
AMERICA DOURADA BA,BA,-11.4515262,-41.4357517,16097,822.373,19.573843012842104,1.80157793377648,0.0621349571268796,2761.71176754209,,120759,0.01857448271366471
AMERICANO DO BRASIL GO,GO,-16.2515808,-49.9806104,6057,133.563,45.34938568316076,2.80666996863134,0.818196694485354,222.925,,81818,0.029094360253507166
AMERICO DE CAMPOS SP,SP,-20.298476,-49.735904,5956,252.876,23.553045761559023,0.0,5.36103199865974,222.481490206908,,99184,0.001570671320086309
AMETISTA DO SUL RS,RS,-27.3617341,-53.1826575,7416,93.704,79.14283274993598,3.77562028047465,14.5768659738156,1757.14961567777,,92415,0.042966199600170354
AMONTADA CE,CE,-3.3634586,-39.8284791,43131,1178.162,36.60871764663943,0.834666481185226,0.368222406333425,7370.86003280919,60.0,421576,0.008867412742482202
AMORINOPOLIS GO,GO,-16.6211308,-51.0949921,3185,408.525,7.796340493237868,4.08163265306122,0.319897632757518,107.061224489796,,54682,0.042034135791550124
AMPARO DE SAO FRANCISCO SE,SE,-10.2002447,-36.93251519749188,2368,35.33,67.02519105575998,0.0,0.4212299915754,404.893698462017,,25943,0.00013161685617001852
AMPARO DO SERRA MG,MG,-20.5070255,-42.8028462,4751,136.186,34.88611164143157,0.0,2.33396987057076,123.257305701446,,46810,0.0006854456128300816
AMPARO PB,PB,-7.56394725,-37.04652873235175,2227,121.984,18.2564926547744,0.0,0.893655049151028,35.7518518518519,,21979,0.0002642842491896781
AMPARO SP,SP,-22.70111,-46.76444,79664,555.631,143.3757295759236,4.80769230769231,41.6162925479541,27623.860503348,301.0,3635849,0.06286333294027661
AMPERE PR,PR,-25.9168712,-53.4742414,18989,298.349,63.646936976493976,1.7905102954342,13.5756056808688,6603.81205816084,126.0,526160,0.022490233554920115
ANADIA AL,AL,-9.6830208,-36.3052699,17564,186.134,94.36212621014968,1.42336597585971,0.341977771444856,744.456178301061,,140492,0.014778814377320239
ANAGE BA,BA,-14.6134669,-41.1376308,18194,1336.361,13.614584681833724,1.81378476420798,0.616004928039424,2831.11762906573,,160376,0.018875396843588448
ANAHY PR,PR,-24.6450861,-53.1337957,2816,102.647,27.43382660964276,0.0,1.78507675830061,170.551,,87716,0.0005477149867132137
ANAJAS PA,PA,-0.9878802,-49.9390114,28859,6913.64,4.174212137166529,0.693024706330781,0.102469515319193,549.021153846154,,189225,0.007232073035741605
ANAJATUBA MA,MA,-3.26441,-44.6179916,26614,942.568,28.23562862308077,0.939355226572481,0.223855538559117,0.0,,173717,0.009789424946494792
ANALANDIA SP,SP,-22.128917,-47.661939,4933,325.953,15.134083748270458,0.0,6.20620620620621,0.0,,142577,0.001830838024169568
ANAMA AM,AM,-3.5797356,-61.4049996,13269,2446.121,5.424506800767419,1.50727259024795,0.0734537975613339,3010.51807350354,,95318,0.015543686975971796
ANANAS TO,TO,-6.3663053,-48.080238,9607,1576.973,6.092051037018389,1.45727074008535,1.0472300764478,2729.00195947926,,108866,0.015313444469312206
ANAPOLIS GO,GO,-16.3332828,-48.9525756,381970,933.156,409.3313443840044,2.83530120166505,15.7240587920594,135177.715276813,1144.0,13118759,0.03952458533295427
ANAPU PA,PA,-3.4668292,-51.2057035,27161,11895.296,2.2833395654887445,1.28861234858805,0.717102904266762,5447.15991851686,,309602,0.013578112314488437
ANAPURUS MA,MA,-3.6751298,-43.1046001,15566,608.903,25.564006089639893,1.02788127971219,0.3813882532418,11860.3453740656,,133577,0.010725277241809765
ANAURILANDIA MS,MS,-22.185169,-52.719056,8993,3395.437,2.64855451595774,1.33437117758256,0.774764803541782,796.643373493975,,213340,0.014020948794785578
ANCHIETA ES,ES,-20.8057672,-40.6454564,28736,409.691,70.14066699048796,10.6486636971047,8.64573010286027,7377.95037219054,153.0,713453,0.11214502203834055
ANCHIETA SC,SC,-26.5350527,-53.3293938,5721,231.7,24.69141130772551,0.0,9.57786449095424,258.853333333333,,138440,0.002788593587332813
ANDARAI BA,BA,-12.8059674,-41.3322919,13153,1590.316,8.270683310738242,2.43290504067513,2.66301453245073,5313.39771478002,,95028,0.025786829963107518
ANDIRA PR,PR,-23.0494761,-50.2310027,20139,236.075,85.3076352853966,3.07860370425542,7.88777395037692,2864.34755098956,91.0,685605,0.034172190396775076
ANDORINHA BA,BA,-10.3445708,-39.8334411,14690,1362.386,10.782553549434596,0.068073519400953,2.26104830421377,1526.178,,172216,0.0014204996437942533
ANDRADAS MG,MG,-22.0680484,-46.5688976,40747,469.396,86.80730129783807,1.59520946327337,10.0299437641503,18156.6830945289,196.0,854890,0.01962395644669758
ANDRADINA SP,SP,-20.896505,-51.3742765,57112,964.226,59.2309271892689,2.22370079843115,9.5176443830152,43646.8885319043,289.0,3109727,0.026952121637555587
ANDRE DA ROCHA RS,RS,-28.6309124,-51.5733328,1324,329.4,4.019429265330905,0.0,2.25056264066016,72.9396666666666,,123540,0.0006963947560410044
ANDRELANDIA MG,MG,-21.739722,-44.308889,12242,1005.285,12.17764116643539,2.61395196863258,4.00850785340314,3742.1239523742,97.0,195341,0.028074479546820363
ANGATUBA SP,SP,-23.4938938,-48.4110675,24969,1027.288,24.305744834944047,2.2828307100805,4.08276518154432,2886.25715109136,,834417,0.024983912691063044
ANGELANDIA MG,MG,-17.7253,-42.2728,8481,185.211,45.79101673226752,0.0,1.05633802816901,1255.66413381123,,79875,0.00033675997085339795
ANGELICA MS,MS,-22.1588196,-53.7728504,10620,1273.268,8.340742090431865,2.44821092278719,1.85528756957328,192.523333333333,,627506,0.025954852684308898
ANGELIM PE,PE,-8.8902038,-36.2872987,11072,118.037,93.80109626642492,1.53540462427746,1.0762331838565,4754.00395481372,,110369,0.016124813667277423
ANGELINA SC,SC,-27.5805287,-48.9838759,4860,499.776,9.724356511717248,16.4609053497942,6.66527806706936,124.28,,113613,0.1710019008260065
ANGICAL BA,BA,-12.005623,-44.7000236,14017,1530.05,9.161138524884809,0.428051651565956,0.500822780281892,0.0,,143722,0.00460360621958674
ANGICAL DO PIAUI PI,PI,-6.0872666,-42.7366138,8947,256.728,34.850113739054564,1.22946238962781,0.441956393635828,5395.42069071629,,62753,0.012780735727638139
ANGICO TO,TO,-6.3893733,-47.8656722,3417,451.733,7.564202748083492,0.0,0.291290416545296,420.309449928292,,44021,0.00010280676232501601
ANGICOS RN,RN,-5.6666344,-36.6009064,11724,741.582,15.809445213071514,2.38826339133402,2.47567013829606,5903.74161276632,,119328,0.02528602467969386
ANGRA DOS REIS RJ,RJ,-23.0063966,-44.316326,200407,813.21,246.4394190922393,1.7963444390665,7.46865569104694,17459.0769464982,399.0,9122561,0.024698282125548785
ANGUERA BA,BA,-12.1509425,-39.2452469,11142,187.84,59.31643952299829,0.53850296176629,0.089118616879066,1554.04995198567,,61805,0.005583730771805173
ANGULO PR,PR,-23.1958345,-51.9094976,2927,106.021,27.607738089623755,0.0,3.7568306010929,243.336778989669,,90188,0.0011100240076321747
ANHANGUERA GO,GO,-18.3338749,-48.220363,1137,56.95,19.96488147497805,0.0,2.61096605744125,148.360904958346,,15935,0.0007503250087794371
ANHEMBI SP,SP,-22.7891096,-48.1316776,6627,736.557,8.997267013958187,0.0,1.78465199286139,592.333333333333,,128698,0.0005661212481843828
ANICUNS GO,GO,-16.4606451,-49.9572265,21717,979.23,22.177629361845533,2.30234378597412,2.2883295194508,5984.23399968419,,408657,0.024481110261331217
ANISIO DE ABREU PI,PI,-9.183959,-43.049115,9818,337.877,29.057911606886528,1.01853738032186,0.404858299595142,9879.56571440478,,68332,0.010606499349945802
ANITA GARIBALDI SC,SC,-27.6855032,-51.1293873,7313,587.994,12.43720174015381,4.51251196499385,1.68232160381326,2381.01134855599,,139116,0.04688520409855465
ANITAPOLIS SC,SC,-27.9041185,-49.1287395,3236,540.636,5.98554295311448,15.1421508034611,1.23762376237624,74.5892592592592,,59858,0.1558891961393191
ANORI AM,AM,-3.7435254,-61.6605203,20538,6036.38,3.4023702947793213,1.11987535300419,0.0475963826749167,5037.6972934473,,177193,0.011594772008745638
ANTA GORDA RS,RS,-28.9718745,-52.0069187,6003,242.262,24.778958317854222,6.66333499916708,13.5428858050493,711.805256784836,,187361,0.07237166631712023
ANTAS BA,BA,-10.4114649,-38.3308815,19093,321.606,59.3676734886787,7.22777981459174,0.673889378466642,7742.34889670705,,112595,0.0744719999657101
ANTONINA DO NORTE CE,CE,-6.7756797,-39.9873337,7328,260.104,28.173346046196908,2.18340611353712,0.271997824017408,2206.51748297933,,51467,0.022524262769876048
ANTONINA PR,PR,-25.4298854,-48.7125431,19011,882.317,21.54667766800368,1.63063489558677,4.68914646996839,7730.75662879533,,525246,0.018318676990882337
ANTONIO ALMEIDA PI,PI,-7.2186016,-44.1950248,3158,645.748,4.890452622385203,0.0,0.948166877370417,898.792836838389,,45887,0.0002906074907708871
ANTONIO CARDOSO BA,BA,-12.4363122,-39.1200307,11691,293.53,39.828978298640685,0.0,0.513566720876487,0.0,,90898,0.0001872621879923711
ANTONIO DIAS MG,MG,-19.6525,-42.872778,9363,787.061,11.896155444114244,0.0,1.39514917364241,0.0,,144725,0.00046250824499741047
ANTONIO GONCALVES BA,BA,-10.5715409,-40.2748824,11715,345.283,33.92869037861696,0.0,0.339040515341583,9674.22248168222,,63539,0.00012522087901932553
ANTONIO JOAO MS,MS,-22.1892837,-55.9508227,8891,1145.175,7.763878883140132,0.787313013159375,1.67485484591335,20.1633333333333,,200144,0.008652875267669401
ANTONIO MARTINS RN,RN,-6.2155812,-37.8890129,7137,244.897,29.14286414288456,4.48367661482416,0.699790062981106,871.814814814814,,49751,0.046269021300868886
ANTONIO OLINTO PR,PR,-25.9849006,-50.1974516,7441,469.62,15.844725522763085,0.268781077812122,0.134517083669626,1194.25190178571,,165598,0.002873530899794427
ANTONIO PRADO DE MINAS MG,MG,-21.0171988,-42.1101106,1609,83.802,19.200019092623087,0.0,1.87734668335419,222.342717473628,,21310,0.000543955580257868
ANTONIO PRADO RS,RS,-28.8567806,-51.2801355,19643,947.393,20.73373985241605,2.59634475385634,13.610970035551,1032.71173218673,120.0,732793,0.03086963339799074
APARECIDA DO RIO DOCE GO,GO,-18.2980167,-51.1491312,2474,602.133,4.10872680952547,0.0,2.02101859337106,527.311635514018,,73902,0.0006086226251140871
APARECIDA DO RIO NEGRO TO,TO,-9.9513491,-47.9773786,4741,1160.368,4.085772789322008,0.0,1.04275286757039,1743.98231935659,,73526,0.0003300231671036786
APARECIDA DO TABOADO MS,MS,-20.0840304,-51.1013943,25431,2750.15,9.247131974619563,4.4827179426684,4.81646921732375,5380.12788391602,178.0,893501,0.047812288740535024
APARECIDA PB,PB,-6.7859598,-38.0831353,8337,295.705,28.193638930691066,0.0,0.599017611117767,6464.53879332305,,72523,0.0002032758498459571
APIACA ES,ES,-21.152272,-41.569297,7580,193.984,39.075387660838,3.95778364116095,2.37874983480904,844.181951980651,,93282,0.041365637751581794
APIACAS MT,MT,-9.5678422,-57.394852,9979,20493.065,0.4869452178090491,2.80589237398537,1.67768676601204,2098.59618910256,,132494,0.029353908076782023
APIAI SP,SP,-24.5076527,-48.8461582,24526,974.322,25.172376278068235,2.07942591535513,5.37457946992697,10543.994048475,82.0,614359,0.02316313177562286
APICUM-ACU MA,MA,-1.5279295,-45.082278,17063,340.288,50.14282019936054,0.879095118091778,0.116016010209409,3383.67631812919,,103720,0.0091082165764175
APIUNA SC,SC,-27.0374658,-49.3885037,10636,492.644,21.58962658633821,0.0,9.40147072512334,1178.15776001201,66.0,386749,0.0028506448234946373
APODI RN,RN,-5.6631109,-37.796927,35814,1602.477,22.34915072103999,2.45713966605238,1.84126098479565,6166.21739902166,89.0,419633,0.025948583400541167
APORA BA,BA,-11.6599747,-38.0794757,17673,479.262,36.87544599822227,0.0565834889379279,0.620382381140376,2033.21096304495,,118226,0.0008111304509827543
APORE GO,GO,-18.9642193,-51.92804,4163,2900.053,1.4354910065436737,4.56401633437425,1.19104335397808,17.2777777777778,,302534,0.04734820668809107
APUAREMA BA,BA,-13.8517897,-39.7457126,7360,150.83,48.79665848969037,0.0,0.818553888130969,126.494444444444,,67914,0.0002636756135054642
APUCARANA PR,PR,-23.5525327,-51.4610764,133726,558.389,239.48537668184724,1.70497883732408,18.9264867107174,75990.0158172613,685.0,2965782,0.024237673671185657
APUI AM,AM,-7.1940195,-59.8830192,21583,54240.556,0.3979125877691962,1.94597599962934,0.773676785145406,2704.83654761905,,185275,0.02028913301585656
APUIARES CE,CE,-3.9460303,-39.4313298,14814,545.158,27.173773474845824,0.810044552450385,0.89041095890411,5572.80013502736,,92920,0.00861458951583961
AQUIDABA SE,SE,-10.2837579,-37.0188687,21443,359.543,59.63959804529639,1.4923284988108,0.881138988081436,3631.39147012607,,233417,0.015682522630112224
ARABUTA SC,SC,-27.1587028,-52.1438142,4266,133.014,32.071811989715364,4.92264416315049,3.04663698148582,1238.32533670034,,106727,0.05147092448963676
ARACAGI PB,PB,-6.8519969,-35.3835602,17079,231.155,73.88548809240552,0.0,0.176605639606758,1567.52993296321,,141732,0.00011433893194745287
ARACAI MG,MG,-19.200833,-44.2475,2341,187.538,12.48280348516034,0.0,3.83468257349808,248.910416666667,,45297,0.0011118875384255168
ARACAJU SE,SE,-10.9162061,-37.0774655,1050402,1631.343,643.8878886904838,2.22010239889109,11.5379680193831,914040.83906528,2773.0,22657962,0.03632755387197325
ARACARIGUAMA SP,SP,-23.4388277,-47.0613084,21854,145.204,150.50549571637143,0.0,15.2030048291898,2026.88450704224,,2121497,0.005286096139214799
ARACATI CE,CE,-4.558259,-37.767894,74084,1230.507,60.20607765742088,1.47130284541871,3.43407514722256,39575.5883889427,272.0,1214577,0.016636757217164115
ARACATU BA,BA,-14.4274236,-41.4604105,13229,1489.804,8.879691556741692,3.0992516441152,0.380662352493338,4015.5870054332,,89349,0.031978049672693645
ARACATUBA SP,SP,-21.207992,-50.4390225,195874,1167.126,167.82592453599696,1.87365347110898,23.3229788443578,324771.024830931,1039.0,6938553,0.029017283100514043
ARACI BA,BA,-11.3356065,-38.9573261,54099,1495.554,36.17321741642228,0.887262241446237,0.974640945953401,5954.51069121575,,391894,0.009566748597779362
ARACITABA MG,MG,-21.3425,-43.378611,2066,106.608,19.379408674771124,0.0,0.969461948618517,303.001666666667,,22156,0.00028594007725724405
ARACOIABA CE,CE,-4.3702577,-38.8084313,26437,656.597,40.26366249008144,1.89128872413663,0.831160980769957,14948.5041086188,47.0,191000,0.01974644374290585
ARACRUZ ES,ES,-19.8245218,-40.2735025,99305,1420.285,69.91906553966281,1.23860832787876,9.06935388263189,11625.0505852414,352.0,4609369,0.017385590248111437
ARACU GO,GO,-16.3561579,-49.6815269,3560,149.371,23.83327419646384,4.7752808988764,4.25894378194208,196.225,,51889,0.05027775375046695
ARACUAI MG,MG,-16.8484451,-42.0661868,36705,2236.279,16.41342605283151,1.63465467919902,3.3235262068214,26935.8770860764,150.0,365568,0.01789909634856562
ARAGOMINAS TO,TO,-7.1654101,-48.525488,5786,1173.035,4.932504145230108,0.0,0.521014241055922,744.244201542403,,63870,0.00017716303954397705
ARAGUACEMA TO,TO,-8.8067391,-49.5560969,7016,2778.452,2.5251470962967866,2.4230330672748,0.846740050804403,871.535310541312,,94608,0.025168315262384954
ARAGUACU TO,TO,-12.928934,-49.823134,8567,5167.652,1.6578128713001572,3.3850822925178,1.40894681225784,1805.19068298154,,181312,0.03524777067255845
ARAGUAIANA MT,MT,-15.729144,-51.834112,3119,6422.966,0.4856012004422878,3.84738698300737,0.967741935483871,59.3333333333333,,73050,0.039821123027064254
ARAGUAINA TO,TO,-7.193241,-48.2018597,177517,4000.416,44.37463503795605,3.12082786437355,7.56358397517593,306153.078780565,578.0,3805223,0.03592388101425539
ARAGUAINHA MT,MT,-16.857016,-53.031778,956,688.326,1.388876782222377,0.0,2.13903743315508,292.275768047002,,18484,0.0006171592146387121
ARAGUANA MA,MA,-2.9508403,-45.6651986,15297,805.193,18.997929688906883,1.11132901876185,0.0,1434.47666666666,,77289,0.011448289859622584
ARAGUANA TO,TO,-6.5799107,-48.6428482,5663,836.03,6.77368037032164,0.0,1.57095479141211,1972.61641553562,,66863,0.0004773453495467026
ARAGUAPAZ GO,GO,-15.0937927,-50.626417,7756,2193.7,3.5355791584993392,1.28932439401753,0.386100386100386,1417.39468379748,,114657,0.0134030858113113
ARAGUARI MG,MG,-18.6511256,-48.1933764,116691,2729.508,42.75166073885843,1.53396577285309,9.00509094630203,14534.562966568,400.0,3923828,0.02009070138337302
ARAGUATINS TO,TO,-5.6529384,-48.1161923,35346,2625.286,13.463675957590906,0.707293611724099,1.59391515897206,18377.6363229247,57.0,377258,0.007888109091084547
ARAIOSES MA,MA,-2.890914,-41.904993,46103,1786.345,25.808564415048604,2.53779580504522,0.344530577088717,301.77,,259119,0.026278364224602932
ARAL MOREIRA MS,MS,-22.951141,-55.6268421,11963,1655.66,7.225517316357223,0.752319652261139,0.493867808050045,59.2733333333334,,582036,0.00813001223416817
ARAMARI BA,BA,-12.0907897,-38.4985065,11332,368.948,30.71435541051856,0.0,0.877423883478108,3853.15251962739,,84880,0.000288100914820983
ARAMBARE RS,RS,-30.9132252,-51.4994625,3600,518.193,6.947218507390104,0.0,5.02652890254119,510.313333333333,,131687,0.0014901605598271078
ARAME MA,MA,-4.8858769,-46.0102484,32637,2976.039,10.966590155572558,1.77712412292797,0.214060732087704,1452.08564814815,,222309,0.018412491247046726
ARANDU SP,SP,-23.1345103,-49.0545651,6348,285.908,22.20294640233921,2.52047889098929,7.39342457133868,600.42,,131273,0.028048946530148146
ARANTINA MG,MG,-21.911667,-44.255833,2804,89.42,31.357638112279133,0.0,1.78890876565295,600.066212423897,,53418,0.0005333001836624129
ARAPEI SP,SP,-22.6738889,-44.4477778,2478,156.903,15.793197070801709,0.0,0.810044552450385,724.688048687958,,25889,0.00024225504961947552
ARAPIRACA AL,AL,-9.754866,-36.661471,230417,345.655,666.6097698572277,4.00144086590833,5.23415621345692,442404.042164225,752.0,4012632,0.04439855109168709
ARAPOEMA TO,TO,-7.6575001,-49.0641484,6670,1552.217,4.297079596473947,4.047976011994,0.903206382658437,1752.88812570471,,106400,0.04187788142270873
ARAPONGA MG,MG,-20.666667,-42.520556,8425,303.793,27.73269956845615,0.0,1.06647707074298,453.518117505995,,83027,0.0003410706555681448
ARAPONGAS PR,PR,-23.4152862,-51.4293961,121198,382.215,317.093782295305,3.20137295994983,21.7757077714648,74202.6064883434,820.0,4030758,0.04089802816444589
ARAPOTI PR,PR,-24.1457957,-49.8224605,27925,1360.494,20.525632601099307,0.752014324082363,5.4063667081629,5069.92842342243,158.0,1042279,0.009733116086834442
ARAPUA MG,MG,-19.034444,-46.155556,2833,173.894,16.291533922964565,0.0,3.88143966125618,135.355666666667,,116946,0.0011575864287956094
ARAPUA PR,PR,-24.3079525,-51.7901941,3128,217.371,14.390144039453284,0.0,0.0,19.9733333333333,,97048,4.387349225885348e-05
ARAPUTANGA MT,MT,-15.4710868,-58.346796,16690,1610.076,10.36597030202301,1.13840623127621,3.62620378076329,13430.6958977828,113.0,414409,0.012910851538115593
ARARA PB,PB,-6.8271895,-35.7605703,13438,99.111,135.58535379523968,1.26506920672719,1.03934669636229,984.619761472807,,90214,0.013328858788078102
ARARANGUA SC,SC,-28.9348832,-49.4858389,82349,461.226,178.5437074232589,1.42078228029484,17.3340370912406,79622.9371340837,614.0,1795020,0.020336460893514673
ARARAQUARA SP,SP,-21.7886713,-48.1773096,298033,1840.848,161.89984181203445,2.1507685390544,26.9950594888049,198777.507555,1379.0,10905113,0.03470158926309964
ARARAS SP,SP,-22.3569477,-47.3838889,132934,644.831,206.15324015129545,4.19004919734605,23.8535117256176,60570.916984814,530.0,4997486,0.05208014681124684
ARARENDA CE,CE,-4.7504395,-40.8303611,10901,344.131,31.676890486471724,1.65122465828823,0.274348422496571,1853.18818553639,,65189,0.017065631687303996
ARARI MA,MA,-3.4547602,-44.7772723,29764,1100.275,27.051418963440955,1.9822604488644,0.636558563387832,20710.1711631688,,234791,0.02064513356389812
ARARIPE CE,CE,-7.212861,-40.1359222,21550,1099.933,19.592102428056982,1.94895591647332,0.277777777777778,10396.6232433953,,148550,0.02016199362486393
ARARIPINA PE,PE,-7.5768582,-40.5038509,92403,2177.36,42.43809016423558,2.69471770397065,2.486277042299,49568.7949348999,150.0,849119,0.02876625351760088
ARARUAMA RJ,RJ,-22.8733203,-42.3428897,158201,688.693,229.7119326027708,0.998729464415522,11.0322941945119,17928.1507954738,340.0,2894252,0.014705346665892464
ARARUNA PB,PB,-6.5321155,-35.7397595,20215,241.302,83.77468897895584,0.0,0.886175659708547,3372.67754415022,,154892,0.0003222428533263635
ARARUNA PR,PR,-23.9320308,-52.4976047,13939,493.19,28.262941259960662,2.00875242126408,7.44452397995705,127.245,,448453,0.02295145020426164
ARATACA BA,BA,-15.2617424,-39.4122943,11079,435.962,25.41276533275836,0.0,0.272257010618023,1391.02410901468,,97942,0.00012176618586877733
ARATIBA RS,RS,-27.3955734,-52.3024325,6283,342.279,18.35637009574061,5.72974693617699,4.65116279069767,959.966978090768,,954871,0.060599971921775304
ARATUBA CE,CE,-4.4195958,-39.0463737,11346,114.785,98.84566798797752,1.05764145954521,0.506457330969866,1360.69938167074,,93610,0.011048442577644983
ARATUIPE BA,BA,-13.077137,-39.0010786,8813,174.012,50.64593246442774,0.0,0.226628895184136,170.6,,67349,9.494922858570453e-05
ARAUA SE,SE,-11.2628389,-37.619978,10168,198.967,51.10395191162353,0.0983477576711251,0.0994431185361973,1067.13495425681,,111429,0.0010887093722548112
ARAUJOS MG,MG,-19.948055,-45.165556,9142,245.522,37.23495246861789,0.0,8.19583737733204,2024.44312661681,,266088,0.0024529545593211144
ARAXA MG,MG,-19.5928536,-46.940241,109794,2343.31,46.8542361019242,4.0257208954952,14.729464333976,28690.4910791823,913.0,5308880,0.047936425997158603
ARCEBURGO MG,MG,-21.364444,-46.939722,10657,162.875,65.43054489639295,0.938350380031904,4.82733011511326,4309.57190411342,,262618,0.011129515253473516
ARCOS MG,MG,-20.282223,-45.539444,39793,509.873,78.04492491267433,1.60832307189707,14.8658086401277,17628.2109941112,204.0,1097434,0.02124464412142906
ARCOVERDE PE,PE,-8.415192,-37.057748,73844,323.37,228.357608930946,1.9500568766589,3.86074416852754,154323.958349625,256.0,950624,0.021555669725189647
AREADO MG,MG,-21.3582771,-46.1476688,14955,283.124,52.82137861855582,0.936141758609161,7.03384207033842,4788.19705625867,,217091,0.01171425809888852
AREALVA SP,SP,-22.0301906,-48.9111936,8505,504.973,16.842484647694036,3.40975896531452,7.24299065420561,207.245,,170709,0.03715686532633782
AREIA BRANCA RN,RN,-4.9506652,-37.1263312,27162,335.219,81.02762671566946,1.2517487666593,2.26830848995463,2031.33584456588,83.0,493892,0.013724334187230272
AREIA BRANCA SE,SE,-10.7591455,-37.3148072,18396,148.134,124.18485965409698,0.0,0.539316147125445,5781.41609968558,,179337,0.0002345724035108635
AREIA DE BARAUNAS PB,PB,-7.1233949,-36.9446216,2140,112.089,19.09197155831527,0.0,0.0,199.696296296296,,17114,7.736902836926248e-06
AREIA PB,PB,-6.9680243,-35.6994783,22978,266.596,86.19034044021666,1.56671598920707,1.70910206406942,5342.95707135949,,207750,0.01667052963986752
AREIAL PB,PB,-7.0501306,-35.9245244,6935,35.641,194.5792766757386,0.0,0.571591883395256,658.769072367901,,51093,0.00018578198424317317
AREIAS SP,SP,-22.5800929,-44.6975127,3876,305.227,12.698745523823254,0.0,1.02933607822954,664.204115405256,,37753,0.0003100322726551696
AREIOPOLIS SP,SP,-22.6758064,-48.6673653,11099,85.907,129.1978534927305,0.0,2.06667265702219,4960.10649912697,,129809,0.0006468909292351244
ARENOPOLIS GO,GO,-16.3859286,-51.55937,2689,1074.595,2.5023380901642014,6.32205280773522,1.53139356814701,370.834827430972,,92641,0.0654052216790632
ARES RN,RN,-6.1969216,-35.1642968,14192,115.505,122.86913986407517,1.83201803833145,1.04851111421781,1335.8794522565,,261890,0.0192316429663949
ARGIRITA MG,MG,-21.612761,-42.8371922,2751,159.378,17.260851560441218,0.0,0.733406674000733,993.804629507059,,30586,0.00022256615169745207
ARICANDUVA MG,MG,-17.8678,-42.5569,5191,243.329,21.33325661963843,0.0,0.573504110112789,743.206666666667,,37980,0.00018039810396546215
ARINOS MG,MG,-15.917223,-46.106111,17888,5279.419,3.3882516239002816,0.670840787119857,2.57342657342657,7666.19433522706,66.0,204199,0.007714286029828805
ARIPUANA MT,MT,-10.175806,-59.4439663,21987,25107.968,0.8756981050796304,1.50088688770637,1.92359309295875,2571.62565003156,107.0,688189,0.016272709237749712
ARIQUEMES RO,RO,-9.9076522,-63.033069,106168,4426.571,23.98425327414832,2.42069173385578,6.26720933035425,118549.626049472,483.0,2183383,0.027631312816721196
ARIRANHA DO IVAI PR,PR,-24.3834527,-51.5876772,2151,239.562,8.978886467803742,0.0,0.0,0.0,,79110,3.5764075226670296e-05
ARMAZEM SC,SC,-28.2624996,-49.0190126,8587,173.733,49.42641869995913,3.72656340980552,10.0299746368457,661.159835616438,,165972,0.04120152398485403
ARNEIROZ CE,CE,-6.3235099,-40.1603859,7836,1066.362,7.348348872146606,2.04185809086269,0.637755102040816,2099.66392649905,,50495,0.02117422530328547
AROAZES PI,PI,-6.1109109,-41.7881792,5844,821.212,7.116311013477641,1.02669404517454,0.342759211653813,431.225185185185,,43295,0.01066127520686054
AROEIRAS DO ITAIM PI,PI,-7.2797031,-41.5629681,2551,316.235,8.066785776400462,0.0,0.0,0.0,,16553,7.483285769524377e-06
AROEIRAS PB,PB,-7.5462904,-35.7080002,19190,374.697,51.214714822910246,2.08441896821261,1.56633425573017,1572.67777777777,,137125,0.02191477714598099
ARRAIAL PI,PI,-6.6541632,-42.5335332,4735,682.761,6.935076842408984,0.844772967265047,0.211550666384599,185.811851851852,,32304,0.00875063295120188
ARRAIAS TO,TO,-12.9287788,-46.9437231,10601,5786.866,1.8319069423760632,3.30157532308273,1.79805053468345,5178.25011669646,,143068,0.03448360964177833
ARROIO DO SAL RS,RS,-29.549852,-49.8874395,9842,119.163,82.59275110562842,0.0,14.7044212617983,0.0,83.0,194682,0.0042731164165668205
ARROIO DO TIGRE RS,RS,-29.334158,-53.0888935,13332,315.132,42.30608126118579,5.7005700570057,1.12166305241905,5718.83925586898,65.0,310146,0.05900430795380591
ARROIO DOS RATOS RS,RS,-30.0894524,-51.7265541,14123,425.21,33.21417652454082,0.920484316363379,4.87598049607802,3402.72949387415,88.0,222600,0.010941786075679734
ARROIO GRANDE RS,RS,-29.548078,-52.0971166,18351,2514.763,7.297307937169427,2.61566127186529,2.62395451812169,2656.41545047565,80.0,496710,0.027834211909170868
ARROIO TRINTA SC,SC,-26.9301976,-51.334928,3551,94.418,37.60935414857336,5.06899464939454,13.2394366197183,1667.20072858617,,89986,0.05586740329583393
ARTUR NOGUEIRA SP,SP,-22.572737,-47.172679,68029,243.603,279.2617496500454,0.529186082406033,32.2622515792206,5413.22951146541,255.0,1900543,0.015476272322403919
ARUANA GO,GO,-14.9162439,-51.0715692,9635,3055.292,3.153544734840401,1.55682407887909,1.72151898734177,3878.49944444444,,162664,0.0165520912742511
ARVOREDO SC,SC,-27.0755081,-52.4570855,2246,90.503,24.81685689977128,0.0,2.67857142857143,0.0,,91584,0.0008037659626762434
ARVOREZINHA RS,RS,-28.8731093,-52.1757917,10425,270.241,38.57667785421161,4.89208633093525,9.40138142747506,4972.93429173362,81.0,244616,0.053028090492595735
ASCURRA SC,SC,-26.9569975,-49.3767752,7889,112.884,69.88590057049714,0.0,15.6289387446433,2630.59255578002,,157707,0.00451953264517891
ASPASIA SP,SP,-20.1596604,-50.7279226,1825,69.373,26.307064708171765,0.0,4.93962678375412,14.1266666666667,,31012,0.0014199136922341822
ASSAI PR,PR,-23.3736041,-50.8454929,15289,440.347,34.72034554567194,3.20491856890575,6.61419406045373,2570.25529381622,83.0,394931,0.034975555627505504
ASSARE CE,CE,-6.8746791,-39.8741385,23417,1116.331,20.97675331062203,1.96438484861425,0.469744202929496,8874.9837722084,,150978,0.020376183006930153
ASSIS BRASIL AC,AC,-10.9409203,-69.5672108,7300,4974.175,1.467580050963225,1.78082191780822,0.539301604422273,1623.13615566441,,83277,0.018480182523435442
ASSIS CHATEAUBRIAND PR,PR,-24.4054826,-53.5120468,33397,969.587,34.4445624786636,1.70674012635865,8.0330915412745,14040.5083132394,152.0,1157044,0.020337639374403974
ASSIS SP,SP,-22.6620892,-50.420623,103666,460.609,225.06290584856137,2.74921382131075,26.6415036499147,90551.9488434298,531.0,2855490,0.03710791862598961
ASSUNCAO DO PIAUI PI,PI,-5.8610212,-41.0485091,7828,1690.703,4.630026681208941,0.0,0.0,450.609951823409,,43816,1.9808351916720842e-05
ASSUNCAO PB,PB,-7.073396,-36.7274003,3870,126.428,30.61030784319929,0.0,0.25062656641604,1955.25655535855,,34973,8.714278211805393e-05
ASTOLFO DUTRA MG,MG,-21.3132636,-42.8624102,14085,158.891,88.64567533718083,0.0,4.30213696311446,3009.98130475189,,277476,0.0013498958091956537
ASTORGA PR,PR,-23.2350184,-51.6647074,26011,434.792,59.82400780143149,2.26827111606628,9.19152847458925,4406.50031762085,140.0,621806,0.026192301038193307
ATALAIA DO NORTE AM,AM,-4.3658547,-70.1908742,19438,76435.093,0.2543072721845187,1.54336865932709,0.0501982832187139,382.583333333334,,168978,0.015941074965661613
ATALAIA PR,PR,-23.1513833,-52.0529697,3902,137.663,28.34458060626312,2.56278831368529,4.88180883864337,352.14134373035,,110926,0.027759421344912032
ATALANTA SC,SC,-27.421916,-49.778863,3226,93.872,34.36594511675473,0.0,6.23052959501558,575.142454065243,,96916,0.001817118394697654
ATALEIA MG,MG,-18.04432,-41.1110524,13064,1836.925,7.111885351878819,2.67911818738518,1.47653092943736,39.6933333333333,,147331,0.02800139265052004
ATIBAIA SP,SP,-23.1177393,-46.5547861,166296,586.887,283.3526726610063,1.2267282436138,45.4256312087938,44195.929591813,826.0,6422761,0.02843093649820247
AUGUSTINOPOLIS TO,TO,-5.4662267,-47.8897519,18178,394.976,46.02304950174188,5.11607437561888,2.44405822289811,30607.7348595786,65.0,222591,0.05333832942237497
AUGUSTO CORREA PA,PA,-1.0229335,-46.6404029,45516,1085.843,41.91766212979224,1.62580191580983,0.0434801513109266,5766.29636363637,,309293,0.0168491860781147
AUGUSTO DE LIMA MG,MG,-18.1092963,-44.2651945,4888,1254.832,3.895342165325717,0.0,0.82152392688437,1633.79578574266,,68462,0.00026476867225064526
AUGUSTO PESTANA RS,RS,-28.5148413,-53.9906433,6706,347.057,19.322474406221456,8.20161049806144,2.85242456087675,627.512013505218,,298334,0.0851772546629498
AUGUSTO SEVERO RN,RN,-5.8697839,-35.3609613,9638,896.954,10.745255609540736,0.0,0.62143966856551,1612.21215040329,,77321,0.0002118265937930851
AUREA RS,RS,-27.6970921,-52.0521778,3573,156.729,22.79731255862029,0.0,2.53235790658413,164.531666666667,,104787,0.000768120161530316
AURIFLAMA SP,SP,-20.6840418,-50.5554616,15123,434.498,34.80568380061588,2.90947563314157,9.80973072618342,3626.40515275869,,292085,0.03280436092034091
AURILANDIA GO,GO,-16.6772599,-50.4641231,3184,565.34,5.632009056496975,0.0,1.6025641025641,1880.34966666667,,55834,0.0004813558517934197
AURORA CE,CE,-6.9426019,-38.9693765,24699,885.836,27.8821361967678,3.60338475241913,0.730104648332928,2897.44913098863,,175870,0.03729406779098859
AURORA DO PARA PA,PA,-2.1323199,-47.558436,30896,1811.84,17.052278346873898,1.87726566545831,0.0319101410428234,1755.70037340227,,298264,0.0194234397900779
AURORA DO TOCANTINS TO,TO,-12.71045,-46.407604,3731,752.83,4.955966154377482,0.0,0.79850944902848,2000.86763519696,,41475,0.0002460181058089701
AURORA SC,SC,-27.3166417,-49.6368502,5676,207.211,27.392368165782703,2.46652572233968,7.74784293009333,1523.7534785239,,147850,0.027603214541305893
AUTAZES AM,AM,-3.5833283,-59.1301518,38830,7652.852,5.07392538102135,0.798351789853206,0.101099456590421,4068.94933333333,,287717,0.008357918539986098
AVAI SP,SP,-22.1564662,-49.3316395,5369,540.689,9.929922746717615,0.0,1.66574125485841,511.074421392347,,283507,0.0006022635271866626
AVANHANDAVA SP,SP,-21.4603331,-49.9465156,13433,338.37,39.69914590536986,0.0,3.51674115319804,1083.03927163381,,337182,0.0011533519871057506
AVARE SP,SP,-23.1045215,-48.9259103,90063,1213.055,74.24477867862545,1.76543086506112,20.3518835144228,80863.5514675932,395.0,2492529,0.025050257481231193
AVEIRO PA,PA,-3.6029015,-55.328079,16371,17074.052,0.9588233654202296,0.0,0.0,1272.30918367347,,122583,5.54173635888121e-05
AVELINO LOPES PI,PI,-10.1346855,-43.9489525,11252,1218.073,9.237541592334775,1.59971560611447,0.531490831783152,2854.86090865615,,71035,0.016612463268832364
AVELINOPOLIS GO,GO,-16.4672409,-49.7578661,2425,174.235,13.9179843315063,4.94845360824742,1.24120810922631,454.969999999999,,45990,0.0511946766546592
AXIXA DO TOCANTINS TO,TO,-5.612747,-47.77007,9725,150.213,64.74140054456007,0.0,0.820008200082001,4471.21025294835,,107015,0.00028176632620243456
BABACULANDIA TO,TO,-7.2034355,-47.761613,10662,1788.463,5.961543515297772,0.0,0.0937734433608402,2778.09333333333,,101634,7.263609731965983e-05
BACABAL MA,MA,-4.2318132,-44.781167,104633,1683.073,62.16783229247929,2.19815928053291,2.07719940161412,122882.543497882,281.0,1127972,0.023676232676244958
BACABEIRA MA,MA,-2.9786744,-44.3163504,16855,542.962,31.042688070251693,0.0,0.703605980650836,16345.6728287937,,344312,0.0003559137707779364
BACURI MA,MA,-1.728894,-45.1417148,18508,881.431,20.99767310203521,1.24270585692673,0.107631040792164,5416.34071310116,,95451,0.012836374120674529
BACURITUBA MA,MA,-2.7082587,-44.7381309,5617,412.639,13.612382736483948,0.0,0.0,41.2444444444444,,33523,1.5155089038347472e-05
BAGE RS,RS,-31.3314264,-54.1062808,142034,7397.935,19.19914138202079,1.84462875086247,7.26103199348333,24001.5068510573,573.0,3540872,0.022611697281474625
BAGRE PA,PA,-1.8994498,-50.2103844,30009,4397.321,6.824382391005797,0.499850044986504,0.163009813190754,825.153092373538,,167841,0.005255732678036005
BAIA DA TRAICAO PB,PB,-6.65659055,-34.994967358333334,8933,102.64,87.0323460639127,0.0,0.889580785055043,2387.87158134711,,77405,0.0002881816555420123
BAIA FORMOSA RN,RN,-6.3691885,-35.0063741,9218,247.484,37.246852321766255,0.976350618355392,1.40222198252616,251.85,,131145,0.010485502874791667
BAIANOPOLIS BA,BA,-12.3067564,-44.5383591,13824,3320.723,4.162948851801249,2.02546296296296,0.216185054406572,750.531514563106,,128079,0.0209209362191424
BAIAO PA,PA,-2.7903479,-49.6702845,46416,3759.834,12.345225879653198,0.646328852119959,0.231842515702061,6561.36346242905,,337839,0.0068565136260237405
BAIXA GRANDE BA,BA,-11.9630941,-40.1657537,20488,967.514,21.175920968585466,1.75712612260836,1.66112956810631,6134.76129641623,,137300,0.01858053893997547
BAIXA GRANDE DO RIBEIRO PI,PI,-7.862861,-45.2113289,11497,7808.924,1.4722899083151533,0.956771331651735,1.8125323666494,2763.27685921088,65.0,237930,0.010449479646605524
BAIXIO CE,CE,-6.7303544,-38.7170095,6272,146.433,42.8318753286486,3.02933673469388,2.06743002544529,257.633333333333,,41999,0.031718697579113456
BAIXO GUANDU ES,ES,-19.5138322,-41.0182089,30862,909.039,33.95013855291137,1.65251765925734,5.29066391380089,12270.0469052628,136.0,657363,0.018774341589901985
BALDIM MG,MG,-19.2913568,-43.9558262,7851,556.266,14.113751334793069,0.0,1.27779197546639,190.943869158202,41.0,102244,0.0004099017562303942
BALNEARIO BARRA DO SUL SC,SC,-26.459842,-48.6061471,10550,111.037,95.0133739204049,0.0,8.33719314497453,0.0,,176150,0.002452527384412524
BALSAS MA,MA,-7.53214,-46.037163,93826,13141.757,7.139532408033416,1.67331016988894,5.31158114388694,61301.6666769301,432.0,2393125,0.01977853790436529
BAMBUI MG,MG,-20.0131996,-45.9777034,23757,1455.819,16.318649502445016,10.1864713558109,6.84040454907885,5729.06606980778,102.0,580882,0.10682455052444245
BANABUIU CE,CE,-5.3046404,-38.919766,18151,1080.329,16.801363288405664,0.936587515839348,0.879265813046107,1800.03957894737,,141752,0.009933089656741603
BANANAL SP,SP,-22.6828195,-44.3221095,10896,616.429,17.67600161575786,1.37665198237885,5.207857469164,899.043846824805,,217166,0.015718628693463257
BANDEIRA DO SUL MG,MG,-21.728056,-46.385555,5713,47.266,120.86912368298566,0.0,2.78454577097111,1191.31218837839,,65801,0.0008222719036448879
BANDEIRA MG,MG,-15.884444,-40.559167,4825,483.789,9.97335615319902,0.0,0.208550573514077,189.993333333333,,45183,7.978304742583479e-05
BANDEIRANTE SC,SC,-26.7673451,-53.6391722,2708,147.993,18.298162750940925,0.0,1.49365197908887,0.0,,62753,0.0004534857297125287
BANDEIRANTES DO TOCANTINS TO,TO,-7.7635698,-48.579148,3512,1541.846,2.277789091777,0.0,0.0,450.559697995869,,83242,3.7632071166963586e-05
BANDEIRANTES MS,MS,-19.9179623,-54.3646768,6829,3115.684,2.191814060732731,1.75721189046713,3.24101355332941,2519.89266928001,,323594,0.01911529891773845
BANDEIRANTES PR,PR,-23.1778891,-50.646475,31526,445.192,70.81439019569085,4.757977542346,10.2018044441611,17069.0864362088,108.0,691224,0.052080508632362486
BANNACH PA,PA,-7.3508505,-50.4064531,3310,2956.649,1.119510635181924,3.02114803625378,0.304321363359708,0.0,,79600,0.031149790468796023
BANZAE BA,BA,-10.5827616,-38.6122305,13217,409.507,32.27539455979996,0.0,0.30236601406002,1903.91222222223,,82156,0.00012319913131049898
BARAO DE ANTONINA SP,SP,-23.6295651,-49.5632104,3441,153.142,22.469342179153987,0.0,1.44133756125685,271.155,,68573,0.00044122734910450744
BARAO DE COCAIS MG,MG,-19.9452437,-43.4870298,32319,340.585,94.89261124242114,1.05201274791918,4.03263044482069,3716.20095616217,160.0,633625,0.012238368987856574
BARAO DE COTEGIPE RS,RS,-27.6214694,-52.3765316,6627,260.505,25.439051073875746,0.0,12.0791182243696,4206.95553379189,,190743,0.0035241340384012925
BARAO DE MELGACO MT,MT,-16.195776,-55.9668049,8563,11427.74,0.7493170128126821,1.28459651991125,0.350303596450257,1643.3,,87273,0.013331962459317918
BARAO DE MONTE ALTO MG,MG,-21.244722,-42.2375,5443,198.313,27.446511323009588,0.0,0.0,112.466666666667,,45627,2.0627069401684816e-05
BARAO DO TRIUNFO RS,RS,-30.3909877,-51.7375349,7454,436.481,17.077490200031615,0.0,0.267129691465206,165.996666666667,,112802,0.00012702478572003075
BARAO RS,RS,-29.372474,-51.494908,6139,124.563,49.28429790547755,3.9094315035022,6.80602819640253,1360.79458018639,,182562,0.042169494563734686
BARAUNA PB,PB,-6.643394,-36.2531932,4831,50.582,95.50828357913882,0.0,0.408830744071954,34.6407407407409,,37129,0.00013314481018956363
BARAUNA RN,RN,-5.0775002,-37.61752,27994,825.682,33.90409382789016,0.750160748731871,0.881088320293226,469.919245283018,,505822,0.008183594359366383
BARBACENA MG,MG,-21.2254524,-43.7735087,154655,1419.916,108.91841489214856,7.15140150657916,8.5953811068641,89313.721543013,422.0,2799331,0.07715679366580964
BARBOSA FERRAZ PR,PR,-24.0287182,-52.00811,11714,538.636,21.747525230396786,2.47567013829606,2.93914246196404,2060.64650314465,,201086,0.026352564508604587
BARBOSA SP,SP,-21.265661,-49.951816,7335,205.212,35.74352377053974,0.0,0.94569035395839,697.785786615983,,100123,0.0003144216631049825
BARCARENA PA,PA,-1.5107945,-48.6190679,122294,1310.34,93.32997542622526,1.17749031023599,0.489252486365095,34381.1508253641,303.0,5012997,0.01449835162905452
BARCELONA RN,RN,-5.9514918,-35.9260284,4002,152.626,26.220958421238844,2.99850074962519,1.50075037518759,857.86199074074,,32911,0.031236617759770352
BARCELOS AM,AM,-0.9729214,-62.925635,27364,122461.086,0.223450574331833,0.950153486332407,1.23627372554723,6520.06843488648,,157193,0.010181002690470627
BARIRI SP,SP,-22.0746355,-48.7394852,34961,444.405,78.66923189433062,0.657875918881039,15.2847096188748,3330.9233701412,106.0,1424982,0.011750855532393582
BARRA BA,BA,-11.0892702,-43.1420453,53231,11422.537,4.660173129664627,1.55924179519453,0.97054761282616,6535.64891431596,80.0,349674,0.016447726757488398
BARRA BONITA SC,SC,-26.6526364,-53.4419581,1704,93.139,18.29523615241736,0.0,0.596302921884317,0.0,,38443,0.00018709630974125436
BARRA DA ESTIVA BA,BA,-13.6269662,-41.3278287,20813,1657.413,12.557521872942951,4.0359390765387,1.40790367996893,12063.8282701516,72.0,245374,0.04196073412331539
BARRA DE GUABIRABA PE,PE,-8.4173522,-35.6626669,14257,120.583,118.2339135699062,0.771550817142456,1.04275286757039,427.126190476191,,93167,0.008262729368997782
BARRA DE SANTA ROSA PB,PB,-6.7218007,-36.0564638,15268,775.646,19.68423739695686,0.0,0.975039001560062,1421.4221922647,,114067,0.0003290785479080625
BARRA DE SANTANA PB,PB,-7.5230865,-35.9988518,8249,374.374,22.03411561700332,0.0,0.119631534872592,903.362512854469,,59954,6.115299965750616e-05
BARRA DE SAO FRANCISCO ES,ES,-18.7570902,-40.8916119,44315,944.521,46.91796159111338,0.564143066681711,10.3695408734602,25323.7629450135,276.0,845656,0.009127384605777122
BARRA DE SAO MIGUEL AL,AL,-9.8261357,-35.8837777,8264,74.244,111.30865793868864,0.0,5.16702715693343,1408.18749663526,,157937,0.0015420156333075493
BARRA DE SAO MIGUEL PB,PB,-7.7528088,-36.3170996,5939,595.213,9.977940669978649,0.0,0.828363154406892,320.026496772622,,44728,0.0002559855469741048
BARRA DO BUGRES MT,MT,-15.0683712,-57.1853688,34619,5981.569,5.787611912526629,1.70426644328259,3.46050449007607,14318.9227008084,115.0,1184690,0.019023304239863807
BARRA DO CHAPEU SP,SP,-24.472203,-49.023784,5688,405.681,14.020868613516532,0.0,0.0,0.0,,81765,3.69643485135722e-05
BARRA DO CHOCA BA,BA,-14.8638173,-40.5761637,32018,765.152,41.845280414871816,0.999437816228371,1.26570262316869,869.003703703703,,501705,0.010851275775561638
BARRA DO CORDA MA,MA,-5.496823,-45.248496,87794,5190.339,16.914887447621435,1.7882771032189,0.736861198022945,37837.6803909109,100.0,601599,0.01884729896022554
BARRA DO GARCAS MT,MT,-15.8916033,-52.2615413,87198,12480.44,6.986772902237421,1.80050001146815,7.65018613176079,76532.1045369371,416.0,2053977,0.021597058394338668
BARRA DO JACARE PR,PR,-23.1151788,-50.1813945,2781,115.724,24.031315889530266,0.0,1.43833153541891,0.0,,85214,0.0004478948567433991
BARRA DO MENDES BA,BA,-11.8053298,-42.057037,13900,1586.629,8.760712176570578,1.8705035971223,1.15398485394879,6150.63370681876,,90753,0.019579541432049024
BARRA DO OURO TO,TO,-7.7113784,-47.6743925,4549,1106.345,4.111737297136065,0.0,0.0,734.66326460481,,55227,2.4967040608561757e-05
BARRA DO PIRAI RJ,RJ,-22.4703403,-43.8263256,99969,584.61,171.00118027402883,2.34072562494373,4.97140693805169,51145.8254584066,296.0,1985419,0.0263517599506739
BARRA DO QUARAI RS,RS,-30.208947,-57.5505128,4202,1055.937,3.9794040742961,0.0,1.42348754448399,6414.19333333333,,174345,0.00048396440080841177
BARRA DO RIBEIRO RS,RS,-30.2930206,-51.301437,13423,729.375,18.40342759211654,3.05445876480667,2.2237046920169,1065.04871570253,,313960,0.03214412722243221
BARRA DO RIO AZUL RS,RS,-27.4086573,-52.41305,1726,146.995,11.74189598285656,0.0,0.0,179.028333333333,,50253,2.2718393026998643e-05
BARRA DO ROCHA BA,BA,-14.2090974,-39.6004395,5821,214.411,27.14879367196645,0.0,1.22506125306265,3113.57845578678,,61857,0.0003766356129411421
BARRA DO TURVO SP,SP,-24.756421,-48.5056942,7687,1007.684,7.628383501176956,0.0,0.783392087739914,236.616666666666,,80277,0.00025925709333325095
BARRA FUNDA RS,RS,-27.9230048,-53.0401045,2527,60.437,41.81213495044427,0.0,3.15084679007483,577.770185185185,,114552,0.0009485661774473565
BARRA LONGA MG,MG,-20.2833541,-43.0423516,5250,383.628,13.68513247208233,0.0,2.53361917754824,0.0,,68872,0.0007522426734534761
BARRACAO RS,RS,-27.6722339,-51.4583497,5295,515.469,10.272198716120656,0.0,1.32701421800948,540.959444091442,45.0,210629,0.00047290989072940216
BARRAS PI,PI,-4.2446153,-42.2920241,46941,1722.507,27.251558339095283,1.57644702924948,0.616156036204479,16967.6224691011,89.0,347272,0.01652247331938571
BARREIRA CE,CE,-4.2883361,-38.641094,22362,245.805,90.97455299932874,1.11796798139701,0.84726867335563,928.966603396604,,145126,0.011788285478846285
BARREIRAS BA,BA,-12.1440031,-44.9967406,153831,7859.716,19.57208123041596,2.03470041799117,7.93237218458688,281377.9529347,623.0,3358643,0.02467242490239155
BARREIRAS DO PIAUI PI,PI,-9.9224524,-45.4763776,3344,2028.303,1.6486688625910428,0.0,0.0,85.5806693229035,,23686,1.0707974792300755e-05
BARREIRINHA AM,AM,-2.798863,-57.067897,31593,5751.765,5.492748747558358,0.981230019308075,0.0624200243438095,6680.09148806298,,219595,0.0101942725784859
BARREIRINHAS MA,MA,-2.7541271,-42.8259693,61828,3047.05,20.291101229057613,0.841042893187553,1.82318321392016,24027.5716374481,68.0,448873,0.009359343160476265
BARREIROS PE,PE,-8.8159644,-35.1831905,42552,233.433,182.28785133207387,4.77063357774018,2.20352094516984,25266.4236690163,127.0,410872,0.04980730995572096
BARRETOS SP,SP,-20.5531437,-48.5697509,121344,1566.161,77.47862448368973,4.15348101265823,20.6145882815443,464988.152264535,480.0,4419155,0.05052129204105694
BARRINHA SP,SP,-21.1898849,-48.1550642,32434,146.025,222.1126519431604,0.0,9.26490308423747,4748.69067484708,104.0,479540,0.002853724558134694
BARRO ALTO BA,BA,-11.7618025,-41.9094904,14802,414.51,35.7096330607223,1.55384407512498,0.93764650726676,579.077777777777,,82382,0.01626209055491225
BARRO CE,CE,-7.1713587,-38.7742136,22593,711.887,31.73677844938874,1.32784490771478,1.01410934744268,5935.93293024047,,155883,0.013996069962907934
BARRO DURO PI,PI,-5.8180139,-42.5106589,7038,159.429,44.14504262085317,3.55214549587951,0.142207053469852,2742.63301486453,,56508,0.03654655471341744
BARRO PRETO BA,BA,-14.8068289,-39.4727588,5743,201.585,28.48922290845053,5.74612571826571,1.43087104274727,0.0,,60139,0.05944714669796487
BARROCAS BA,BA,-11.5338665,-39.0802106,15846,207.297,76.4410483509168,1.83011485548403,0.68844661409438,674.256666666666,,250869,0.01910463500500136
BARROLANDIA TO,TO,-9.837246,-48.7264346,5614,713.3,7.8704612365063795,0.0,1.24289772727273,153.373333333334,,71715,0.00038616875584168817
BARROQUINHA CE,CE,-3.0200371,-41.1339229,14989,384.9,38.94258248895817,0.600440322903463,1.46500632616368,2061.3341251422,,96733,0.00662721654215725
BARROS CASSAL RS,RS,-29.094938,-52.5832366,11216,648.896,17.284742085018248,0.0,0.535762121618002,1447.48541867802,,184296,0.0002358027395506821
BARROSO MG,MG,-21.187137,-43.9771259,20720,82.07,252.46740587303523,2.36486486486486,5.47813551177319,4389.41477913174,91.0,313919,0.02598824041420521
BASTOS SP,SP,-21.9222474,-50.7317727,20954,170.912,122.6011046620483,1.67032547484967,7.34978284732497,2267.33497150924,107.0,822429,0.01961790787568923
BATAGUASSU MS,MS,-21.715899,-52.422058,22717,2417.599,9.396512821191603,1.54069639477044,3.86553161917999,5039.84618495797,140.0,746255,0.01726050895251453
BATALHA AL,AL,-9.6733809,-37.1265481,18455,319.036,57.84613648616457,1.89650501219182,0.877577885037297,3661.60699853319,,164009,0.01980102388599702
BATALHA PI,PI,-4.022391,-42.0780926,26806,1589.01,16.869623224523444,0.85801686189659,0.521279368507279,4631.02413283734,,164696,0.009034653122334403
BATATAIS SP,SP,-20.892867,-47.592149,62024,849.526,73.01012564653702,2.14433122662195,15.1660587444807,9363.70634265629,196.0,1662099,0.027090177611210985
BATAYPORA MS,MS,-22.2976466,-53.2685608,11305,1828.024,6.184273291816738,0.0,2.47153323329508,4018.18459128065,,344660,0.0008592503897175473
BATURITE CE,CE,-4.3290203,-38.8821055,35575,308.581,115.28577585787848,1.85523541813071,2.32167832167832,39091.2629429156,123.0,300254,0.01984979204129985
BAURU SP,SP,-22.3218102,-49.0705863,387775,1070.093,362.3750459072249,3.06105344594159,40.0380070379609,536732.567308521,1903.0,13334180,0.04886057221084147
BEBEDOURO SP,SP,-20.949077,-48.479083,77436,683.192,113.34441855291044,1.80794462523891,21.4849798699288,48841.4683902282,695.0,3220044,0.026138265677511884
BEBERIBE CE,CE,-4.1810469,-38.1298101,53421,1620.344,32.96892511713562,0.467980756631287,1.38129281541075,3333.71064755701,113.0,635113,0.005486421653727218
BELA CRUZ CE,CE,-3.0529129,-40.167582,32593,843.021,38.662144833877214,0.920443039916547,0.705716302046577,1670.53386029429,,204788,0.009746388364128653
BELA VISTA DA CAROBA PR,PR,-25.8792818,-53.6672545,3567,148.107,24.083939314144505,0.0,0.854457419538593,117.461666666666,,96262,0.000286709884215736
BELA VISTA DE GOIAS GO,GO,-16.9692949,-48.9513071,29448,1275.849,23.081101290199705,1.0866612333605,5.03753127606339,1950.54645004606,82.0,812855,0.012961245528195116
BELA VISTA DO MARANHAO MA,MA,-3.7416367,-45.2514192,11138,147.954,75.2801546426592,1.34674088705333,0.178428048889285,467.607904548843,,75247,0.013915829966694751
BELA VISTA DO PARAISO PR,PR,-22.9948493,-51.1907996,15395,242.689,63.43509594584015,1.23416693731731,5.19581736701955,1285.83,,449513,0.014356919991754032
BELA VISTA DO PIAUI PI,PI,-7.9716353,-41.8715061,3999,499.092,8.012550792238706,0.0,0.99626400996264,317.062962962963,,28865,0.00029660136321632606
BELA VISTA DO TOLDO SC,SC,-26.274625,-50.466354,6311,533.419,11.831224609547093,0.0,1.57803376992268,0.0,,153299,0.0005184361514920908
BELA VISTA MS,MS,-22.107327,-56.5317344,24508,4892.603,5.0091944921752285,1.3056960992329,2.39554996142759,4187.30414423923,88.0,480969,0.014308745938946528
BELAGUA MA,MA,-3.1604031,-43.5085052,7409,569.428,13.011302570298616,1.6196517748684,0.133886731824876,403.173333333334,,41589,0.016690731520584517
BELEM DE MARIA PE,PE,-8.6242497,-35.8388934,12023,75.142,160.00372627824652,0.74856524993762,0.331317816615589,1871.5166775158,,72005,0.00781461530911859
BELEM DO BREJO DO CRUZ PB,PB,-6.1880727,-37.5332267,7335,601.167,12.20126853270389,4.22631220177233,0.544810678289295,82.1908957415564,,59246,0.04358607176441687
BELEM DO PIAUI PI,PI,-7.3767305,-40.9712156,3544,243.531,14.552562096817242,0.0,0.280426247896803,455.156666666667,,24840,9.104329989919183e-05
BELEM PA,PA,-1.45056,-48.4682453,2202308,1541.078,1429.0697810234135,2.5259863742946,7.55636383641602,2597861.08061383,4391.0,39156155,0.045794265096102016
BELEM PB,PB,-6.6967586,-35.5369626,17640,100.153,176.13052030393496,1.4172335600907,1.98008599230595,6358.64556978605,,154253,0.01518828634617137
BELMIRO BRAGA MG,MG,-21.9486291,-43.413564,3433,393.086,8.733457818390885,0.0,1.45815106445028,0.0,,52238,0.000438627998525936
BELMONTE BA,BA,-15.8630837,-38.8792845,23214,1939.447,11.969391274935589,1.72309813043853,1.37174211248285,4455.51732230238,,284368,0.018215193888974194
BELMONTE SC,SC,-26.8448262,-53.578916,2703,93.852,28.80066487661424,0.0,1.10864745011086,74.8999999999999,,49599,0.0003379608529046979
BELO CAMPO BA,BA,-15.0338286,-41.2585109,17317,772.757,22.409373192348955,2.54085580643298,1.16204752774388,3123.48394283389,,118406,0.02647885476015041
BELO HORIZONTE MG,MG,-19.9227318,-43.9450948,5160564,5519.435,934.9804826037448,2.06566569080434,33.9178805358822,3474129.96629439,15174.0,172656163,0.10892239310339562
BELO JARDIM PE,PE,-8.3338293,-36.4176419,76185,647.697,117.62444476352368,1.24696462558246,4.78813171286909,26879.7710063685,175.0,1567878,0.014877909463768386
BELO MONTE AL,AL,-9.8269944,-37.2787165,6696,335.047,19.985255799932546,0.0,0.298329355608592,65.5761421319798,,65747,0.00011463205001136362
BELO VALE MG,MG,-20.407778,-44.024167,7710,365.923,21.070006531428746,4.02075226977951,2.98120544394038,442.093333333333,,131338,0.042200998071593616
BELTERRA PA,PA,-2.636091,-54.937392,17624,4398.418,4.006895206412851,1.13481615978212,0.507556959169862,9100.5281671159,,151436,0.011867481717577882
BENEDITINOS PI,PI,-5.4565671,-42.3605061,10462,934.843,11.191183974207432,1.43376027528197,0.191076717301997,1517.33710369548,,63993,0.014808031377348648
BENEDITO NOVO SC,SC,-26.7840657,-49.3629511,11526,387.94,29.710780017528485,0.0867603678639597,6.95159629248198,1674.9926614216,69.0,255781,0.002985193790362069
BENJAMIN CONSTANT AM,AM,-4.3782748,-70.0290603,42020,8695.392,4.832444586742035,0.809138505473584,0.232644705006514,19010.1644489866,,266870,0.00849671339215572
BENJAMIN CONSTANT DO SUL RS,RS,-27.5105555,-52.6007689,2031,132.351,15.345558401523222,0.0,2.00601805416249,0.0,,31486,0.0005851778014287506
BENTO FERNANDES RN,RN,-5.6926846,-35.8207423,5469,301.069,18.16527108403721,0.0,1.6372566854648,44.2944444444444,,40575,0.0004843316008017395
BENTO GONCALVES RS,RS,-29.1654014,-51.5197627,185706,741.683,250.3845982717684,2.10547855212002,37.9447061014875,38697.653449946,1114.0,9330752,0.036641161332559964
BEQUIMAO MA,MA,-2.4495376,-44.7884889,21260,790.225,26.9037299503306,0.846660395108184,0.234962406015038,1710.39444444444,,111442,0.008812456909906355
BERILO MG,MG,-16.9515764,-42.4643732,11995,587.106,20.43072290182693,3.66819508128387,0.670465973851827,1746.3414499606,,87204,0.03790261162925524
BERIZAL MG,MG,-15.6118785,-41.7417382,4705,488.756,9.62648028873303,0.0,1.05596620908131,458.137777777777,,44787,0.00032079155065960967
BERNARDINO BATISTA PB,PB,-6.4532173,-38.5495418,3393,50.628,67.01825077032473,0.0,0.571265352756355,557.627777777778,,29156,0.0001757717623117458
BERNARDINO DE CAMPOS SP,SP,-23.0140216,-49.4760724,11137,244.158,45.61390574955562,2.06518811169974,6.45855758880517,955.106536231884,58.0,203837,0.02313983745840644
BERNARDO DO MEARIM MA,MA,-4.6315929,-44.7617508,6011,247.221,24.314277508787683,2.49542505406754,0.0,4839.15107138261,,49636,0.02565045476473456
BERNARDO SAYAO TO,TO,-7.8794244,-48.8968905,4469,926.888,4.821510257981546,0.0,0.897062121551918,86.3063172606568,,75530,0.0002894633083801644
BERTIOGA SP,SP,-23.848568,-46.139586,61736,491.546,125.59556989579816,0.793702215887003,23.2256636468561,2999.75183272826,191.0,1487645,0.015434237997504372
BERTOLINIA PI,PI,-7.6372159,-43.9540611,5495,1225.335,4.484487915549625,0.727934485896269,0.545355389929104,1721.75219523083,,47105,0.0076523989483468485
BERTOPOLIS MG,MG,-17.063333,-40.573889,4602,427.803,10.757287817055982,0.0,0.217202432667246,649.1,,37436,7.874323329846926e-05
BERURI AM,AM,-3.9007135,-61.3717319,19258,17472.785,1.1021711764896094,0.675044137501298,0.101631180446161,5089.69248354663,,121837,0.007016709201309551
BETANIA DO PIAUI PI,PI,-8.1460635,-40.7961387,6200,580.917,10.672781137408611,0.0,0.64464141821112,1319.13666666667,,42934,0.00020288448224525387
BETANIA PE,PE,-8.2742779,-38.0351767,12671,1244.074,10.185085453116132,0.789203693473285,0.157245066436041,239.833333333334,,71760,0.00818231758180462
BEZERROS PE,PE,-8.2372132,-35.7558262,60714,492.632,123.24412543237142,2.65177718483381,2.54942596795947,7276.96340697941,140.0,642756,0.028249934887854943
BIAS FORTES MG,MG,-21.605833,-43.756944,3430,283.535,12.097271941735588,0.0,0.295945546019532,218.532510223211,,32270,9.881928778534229e-05
BICAS MG,MG,-21.7213723,-43.0604327,18249,228.737,79.78158321565816,1.91791331031837,7.87315472936031,3902.85036964443,99.0,275537,0.022062355517406054
BILAC SP,SP,-21.403962,-50.47464,7949,158.025,50.30216737857933,4.52887155617059,10.0821508588499,1285.04344216717,,187384,0.049465758747629485
BIQUINHAS MG,MG,-18.783611,-45.502222,2532,458.948,5.516964884910709,0.0,0.397614314115308,442.489376218323,,39063,0.00013082676502949338
BIRIGUI SP,SP,-21.2908491,-50.34144,136816,1077.721,126.94936815743591,1.22792655829728,19.8846991254783,38979.6723316622,520.0,4258993,0.020195704021427546
BIRITINGA BA,BA,-11.6227908,-38.8066738,15975,553.762,28.8481333135896,0.876369327073552,0.688403529632643,877.078771606767,,107488,0.009244836435348708
BITURUNA PR,PR,-26.161281,-51.5533319,16377,1228.284,13.33323563605811,2.62563351041094,4.69827323204588,6737.89484968953,,291295,0.028434145735794298
BLUMENAU SC,SC,-26.9195567,-49.0658025,502853,1587.518,316.7542037318632,1.78183286169119,42.5176365029082,327934.292151121,3739.0,20780114,0.03979487783449134
BOA ESPERANCA DO IGUACU PR,PR,-25.6362851,-53.2139114,2538,151.797,16.719698017747387,0.0,2.39712345185777,89.544,,84195,0.0007203211169463703
BOA ESPERANCA DO SUL SP,SP,-21.9930206,-48.3917372,14824,690.748,21.46079322705241,0.876956287101997,3.48455404409301,976.936305508141,120.0,312038,0.010139165001286343
BOA ESPERANCA ES,ES,-18.5395472,-40.2904088,14982,428.716,34.94621147799476,2.6031237484982,2.06158143246658,2281.13908882071,,219904,0.027420252963172825
BOA ESPERANCA MG,MG,-21.0901253,-45.5660195,40031,860.669,46.51149280385375,1.77362544028378,7.50118374162036,20805.73586783,146.0,876245,0.02074621869971576
BOA ESPERANCA PR,PR,-24.2411024,-52.7860277,4165,302.739,13.757725301332172,2.40096038415366,2.43605359317905,135.0,,212107,0.025447090879038743
BOA HORA PI,PI,-4.4097328,-42.1253651,6744,336.954,20.01460139959757,0.0,0.147470874502286,564.352145944572,,43559,6.16646469369053e-05
BOA NOVA BA,BA,-14.365907,-40.2063056,12953,849.538,15.247110782566525,0.0,0.633262091348057,407.621013071896,,94193,0.00022281893659651164
BOA VENTURA DE SAO ROQUE PR,PR,-24.88177,-51.5441292,6411,620.453,10.332772990057263,0.0,1.40911225927666,0.0,,202949,0.0004928042793553288
BOA VENTURA PB,PB,-7.4202462,-38.2156782,5423,170.58,31.79153476374721,0.553199336160797,0.745434215430488,1863.09748669222,,38884,0.005911097920010797
BOA VIAGEM CE,CE,-5.1261877,-39.7300055,54440,2836.783,19.19075234164897,1.21234386480529,0.734349183036534,14625.6117197362,,368702,0.01282646149004707
BOA VISTA DA APARECIDA PR,PR,-25.4357216,-53.4067721,7643,256.297,29.820871879109,2.616773518252,2.63469898564089,151.105,,133940,0.027684691537534643
BOA VISTA DAS MISSOES RS,RS,-27.6677983,-53.3127622,2104,194.815,10.799989733850063,0.0,2.85986653956149,1465.59122139419,,134736,0.00087487351099448
BOA VISTA DO BURICA RS,RS,-27.6687782,-54.1111913,6712,109.557,61.26491232874211,5.95947556615018,10.7270560190703,2683.36481481482,,186759,0.06434132931012769
BOA VISTA DO CADEADO RS,RS,-28.5783827,-53.8123759,2473,701.314,3.5262378905882388,0.0,1.21457489878543,0.0,,232612,0.0004508460126259713
BOA VISTA DO GURUPI MA,MA,-1.7981168,-46.3071882,9158,404.239,22.65491454312919,1.63791220790566,0.323032195542156,1067.6862037037,,56020,0.016938623848082
BOA VISTA DO INCRA RS,RS,-28.8195551,-53.3866624,2590,503.471,5.144288350272409,0.0,0.768344218209758,0.0,,176368,0.00029841508953845137
BOA VISTA DO RAMOS AM,AM,-2.9716927,-57.5869819,18781,2589.407,7.25301198305249,1.17139662424791,0.104128703077003,3914.10171521035,,110092,0.012109650390038012
BOA VISTA DO SUL RS,RS,-29.3510488,-51.6779679,2788,92.926,30.00236747519532,0.0,7.54581386992454,92.5112741240523,,65111,0.002177090119454985
BOA VISTA DO TUPIM BA,BA,-12.6605988,-40.6083594,18622,2972.109,6.265584472171108,0.751798947481473,0.215331610680448,204.283333333334,,116791,0.007835060794122401
BOA VISTA PB,PB,-7.2620711,-36.2415161,6972,476.542,14.63039983883897,0.0,0.709119273861864,3015.76119899414,,126078,0.0002588236392246923
BOA VISTA RR,RR,2.8208478,-60.6719582,375374,5687.037,66.00519743409441,2.28305636511852,4.91967946935596,169054.774849194,627.0,8112334,0.028514631998764983
BOCA DA MATA AL,AL,-9.6452054,-36.2116658,27168,185.973,146.08572212095302,0.84658421672556,1.28294417360067,4420.35632266354,,265910,0.009179778236808085
BOCA DO ACRE AM,AM,-8.7553487,-67.3930873,33976,21938.591,1.5486865131858285,1.79538497763127,0.816136178150869,5452.57708333333,,308465,0.018810339592758747
BOCAINA DE MINAS MG,MG,-22.167778,-44.394722,5091,503.77,10.105802251027256,0.0,7.26915520628684,4618.88497492001,,50761,0.0020918614547029493
BOCAINA DO SUL SC,SC,-27.745494,-49.942279,3460,511.101,6.769699139700372,0.0,1.15141047783535,54.0437224490691,,70727,0.0003596834217856236
BOCAINA PI,PI,-6.9445939,-41.3224599,4496,261.651,17.183194407818046,4.67081850533808,0.666666666666667,1234.60043114236,,34684,0.04817472959387192
BOCAINA SP,SP,-22.1421831,-48.522276,12204,363.926,33.53428993806433,2.86791215994756,15.7352583340092,3465.73882582434,,1045240,0.03440448693378004
BOCAIUVA MG,MG,-17.1160208,-43.8122678,49942,3227.627,15.47328734082346,1.28148652436827,4.2017647411913,13026.1755931637,126.0,728701,0.014686184884642012
BODO RN,RN,-5.9866104,-36.4134824,2250,253.519,8.87507445201346,0.0,0.449842555105713,37.26,,57736,0.00015413342200447223
BODOCO PE,PE,-7.777592,-39.933797,37909,1621.784,23.374876062410284,0.42206336226226,0.576731505269229,3084.38358343767,,236791,0.004605785944005385
BODOQUENA MS,MS,-20.5508775,-56.6769653,7817,2507.319,3.1176727013993832,1.02341051554305,3.42857142857143,2198.22606433933,,196481,0.01157507536656573
BOFETE SP,SP,-23.1019554,-48.2610535,11534,653.541,17.648471939786486,0.0,4.00682011935209,1505.97446767225,,158687,0.0012121419213233977
BOM CONSELHO PE,PE,-9.169191,-36.685683,48336,792.185,61.01605054374925,0.951671631909964,0.638464390163529,1855.03973363077,69.0,476371,0.010170742408496546
BOM DESPACHO MG,MG,-19.7375242,-45.2517288,50166,1213.546,41.33835882611784,1.89371287326077,10.4337516055726,33186.9877760444,238.0,1146986,0.022936567248619873
BOM JARDIM DA SERRA SC,SC,-28.3380324,-49.625588,4712,937.12,5.028171418815093,3.82003395585739,2.9517183217373,1650.9051994605,,116188,0.04012437948192556
BOM JARDIM DE GOIAS GO,GO,-16.2062659,-52.172793,8813,1899.506,4.639627355744072,2.60978100533303,0.791765637371338,1313.06774678454,,143841,0.027092827293505983
BOM JARDIM DE MINAS MG,MG,-21.9476466,-44.1906033,6489,412.021,15.74919724965475,4.4691015564802,4.6339202965709,1633.50042586144,,118833,0.047270280054873416
BOM JARDIM MA,MA,-3.54129,-45.606004,41435,6590.531,6.2870503150656605,0.868830698684687,0.264232524621667,5976.68222222223,,278476,0.009123989440219657
BOM JARDIM PE,PE,-7.7961599,-35.5871025,39132,218.433,179.1487549958111,0.843299601349279,1.09738668844426,1582.48143784818,,316201,0.009115968293967318
BOM JARDIM RJ,RJ,-22.1515328,-42.4186683,27269,382.43,71.30455246711817,2.38365910007701,7.94286963491948,20659.7965045947,70.0,679130,0.027047863171146557
BOM JESUS DA LAPA BA,BA,-13.250571,-43.410754,68609,4115.511,16.670833828411585,1.31178125318836,2.16926013767571,54981.6884661093,267.0,824384,0.014462086072765083
BOM JESUS DA PENHA MG,MG,-21.0178774,-46.5213848,4190,208.349,20.110487691325613,0.0,2.13421863884278,123.921052631579,,124023,0.0006634998180174038
BOM JESUS DA SERRA BA,BA,-14.37483,-40.5057687,9942,467.813,21.25208149410128,2.8163347415007,0.303643724696356,1818.79204479525,,52293,0.029033820107611186
BOM JESUS DAS SELVAS MA,MA,-4.4878075,-46.8526639,33479,2679.074,12.496481993405183,0.746736760357239,0.293875631832608,1793.075,,253146,0.007867070383095323
BOM JESUS DE GOIAS GO,GO,-18.2174587,-49.739721,24776,1405.028,17.633812279897626,1.00904100742654,3.41053299492386,1664.04505317672,85.0,764933,0.011679352472529918
BOM JESUS DO AMPARO MG,MG,-19.7045132,-43.4752911,6031,195.611,30.831599449928685,0.0,3.28785138911721,735.296449275362,,72310,0.0009684630166269533
BOM JESUS DO ARAGUAIA MT,MT,-12.1725897,-51.5074425,6452,4274.218,1.5095158927317232,0.0,0.759878419452888,3454.62862897845,,260037,0.0003338307024387912
BOM JESUS DO GALHO MG,MG,-19.8283191,-42.3162256,15010,592.289,25.342358206888868,3.3311125916056,0.669568128557081,748.727760119009,,137201,0.034463121580136986
BOM JESUS DO ITABAPOANA RJ,RJ,-21.1341025,-41.680095,46895,685.743,68.38567801639972,2.79347478409212,3.76339513522708,14323.6403603772,151.0,845825,0.030142487035046007
BOM JESUS DO OESTE SC,SC,-26.6929713,-53.0967453,2146,67.777,31.662658423949125,0.0,8.87021475256769,113.747044917258,,42815,0.002543955402925448
BOM JESUS DO SUL PR,PR,-26.1922507,-53.6002033,3577,173.817,20.579114816157222,0.0,1.97684269980232,277.611580041046,,72619,0.0005954694671067062
BOM JESUS DO TOCANTINS PA,PA,-5.0471796,-48.5978362,16841,2816.616,5.979160808573124,1.84074579894306,0.471114775337142,3348.11198753226,,153484,0.019107932966117108
BOM JESUS PB,PB,-6.69453115,-38.43565255115294,2547,46.169,55.16688687214365,0.0,3.12377977352597,0.0,,25340,0.0009005314973606714
BOM JESUS PI,PI,-9.0711644,-44.3583926,24960,5469.182,4.563753775244635,2.00320512820513,2.70066325112197,35857.4701097188,206.0,513661,0.021573783013069725
BOM JESUS RN,RN,-5.9887544,-35.5821149,10152,122.035,83.18924898594666,0.985027580772261,0.685602350636631,263.258333333333,,73828,0.010344742418153013
BOM JESUS RS,RS,-28.6692723,-50.4346894,11391,2623.12,4.342538656256672,2.72144675621104,2.20283725438365,1570.0110906298,79.0,330660,0.02872570444194579
BOM JESUS SC,SC,-26.7350604,-52.3916519,2961,63.415,46.69242292832926,0.0,1.66112956810631,2059.81850556068,,94504,0.000515506430811596
BOM LUGAR MA,MA,-4.3728019,-45.0366054,16148,445.476,36.2488663811294,0.0,0.245489137105683,0.0,,86762,0.00010909337911905128
BOM PRINCIPIO DO PIAUI PI,PI,-3.1912777,-41.6430185,5608,523.142,10.71984279602861,1.06990014265335,0.355239786856128,0.0,,41111,0.011107566648229782
BOM PRINCIPIO RS,RS,-29.489788,-51.3566782,13846,88.779,155.96030592820375,3.1055900621118,21.9850586979723,4531.57998442805,132.0,523322,0.03838827945957897
BOM PROGRESSO RS,RS,-27.5490948,-53.8655601,1987,88.741,22.39100303129332,0.0,1.54479917610711,1648.93016882488,,55679,0.00046484499258080646
BOM REPOUSO MG,MG,-22.4657069,-46.1485376,10558,229.845,45.93530422676152,0.0,1.61183274864891,177.481690365537,,137271,0.0005208099172277157
BOM RETIRO SC,SC,-27.798993,-49.486994,9870,1056.036,9.34627228617206,5.06585612968592,3.81296407786474,1698.76114204072,74.0,278301,0.053237385098466955
BOM SUCESSO DE ITARARE SP,SP,-24.3190016,-49.1446207,3923,133.578,29.368608603213104,0.0,0.758725341426404,14.0433333333333,,49398,0.00023827676920890108
BOM SUCESSO DO SUL PR,PR,-26.0749256,-52.8348629,3274,195.931,16.709964222098595,0.0,4.90196078431373,0.0,,226358,0.0014975054542518019
BOM SUCESSO MG,MG,-21.0323516,-44.7598082,17598,705.046,24.960073527117377,3.75042618479373,2.49957393626086,2280.36636807131,,313715,0.039370118497071546
BOM SUCESSO PB,PB,-6.4458948,-37.9297662,4994,184.102,27.126266960706563,3.20384461353624,0.603015075376884,1365.45801145851,,37860,0.033092227310071616
BOM SUCESSO PR,PR,-23.7101968,-51.7661597,6995,322.755,21.67278585924308,4.1458184417441,3.41296928327645,1191.77107936187,,112464,0.043599781724640754
BONFIM DO PIAUI PI,PI,-9.1648678,-42.8734415,5654,289.209,19.54987569543133,0.0,0.0,1255.71185185185,,35781,1.6175886432631653e-05
BONFIM MG,MG,-17.1095565,-43.8179164,6876,301.865,22.77839431533964,0.0,2.9120559114735,1216.60921576825,,88095,0.0008686419302936408
BONFIM RR,RR,3.3613818,-59.8427241,12257,8095.421,1.5140657910193922,1.14220445459737,0.32234668385849,2173.01298245614,,247502,0.01193407536095885
BONFINOPOLIS DE MINAS MG,MG,-16.5660011,-45.98645,5544,1850.487,2.9959680884005127,1.26262626262626,2.91279810668123,4517.74002671457,,208843,0.013890612683815688
BONINAL BA,BA,-12.7095183,-41.8299984,14288,896.857,15.93119081414317,1.67973124300112,1.32238307349666,1500.77736877839,,88829,0.017667368276686954
BONITO BA,BA,-11.9665473,-41.2649896,16637,791.276,21.02553344218705,0.961711847087816,1.37198759246003,1901.94813512004,,157859,0.01033863439536018
BONITO DE MINAS MG,MG,-15.3191266,-44.7544,11088,3936.455,2.816747555859269,0.0,0.6233303650935,176.365925925926,,74246,0.0002109745680853872
BONITO DE SANTA FE PB,PB,-7.3143332,-38.5146677,11797,228.327,51.66712653343669,1.61057896075273,0.671309893429554,3353.39659965051,,84534,0.016769927209403682
BONITO MS,MS,-21.1264766,-56.4902208,21738,4934.414,4.405386333615299,1.19606219523415,19.5212959592283,19451.1716815979,130.0,634985,0.01812668413359779
BONITO PA,PA,-1.3605722,-47.3049907,16038,586.736,27.33426958632161,0.0,0.122804863072578,0.0,,108301,8.391290559395596e-05
BONITO PE,PE,-8.4769649,-35.7913297,38152,390.107,97.798809044698,1.36296917592787,1.83563224419154,2472.47191555022,,364133,0.014684759982250734
BONOPOLIS GO,GO,-13.649331,-49.8329113,4316,1628.486,2.6503144638639813,0.0,0.908059023836549,152.611666666667,,91380,0.00029975866924816986
BOQUEIRAO DO LEAO RS,RS,-29.30332,-52.4296817,7726,265.58,29.091046012500943,5.04789024074553,2.33341975628727,1233.70359886766,,114725,0.052557824850185356
BOQUEIRAO DO PIAUI PI,PI,-4.4850148,-42.1095161,6388,269.802,23.67662211547728,0.0,0.0,1660.53991452991,,37902,1.7134748821151027e-05
BOQUEIRAO PB,PB,-7.487004,-36.130887,17751,374.523,47.39628807843577,1.85905019435525,1.12334306897326,1629.28592699691,,171210,0.019489566889651942
BOQUIM SE,SE,-11.1450175,-37.6204228,26731,205.643,129.98740535782886,0.0,1.006861575179,3517.96369966848,59.0,290539,0.0004179152626484833
BOQUIRA BA,BA,-12.8184859,-42.7270883,21520,1426.233,15.088698690887114,1.20817843866171,0.325460293844151,5454.32302165355,,137385,0.012562732628458686
BORACEIA SP,SP,-22.195355,-48.7801925,4776,122.11,39.11227581688642,0.0,4.14679659962679,1047.64761904762,,199890,0.0012706084470977383
BORBA AM,AM,-4.3934778,-59.5947721,40565,44236.184,0.9170094780327344,0.936768149882904,0.194358737639999,11665.9021268873,,265443,0.009795927946275358
BORBOREMA PB,PB,-6.8066718,-35.5990191,5395,25.979,207.667731629393,0.0,0.190005700171005,614.131382275132,,60385,8.137741640487602e-05
BORBOREMA SP,SP,-21.6212706,-49.074135,15925,552.256,28.83626434117511,1.63265306122449,4.92334538202667,2285.78636550585,87.0,387635,0.018343848938564784
BORDA DA MATA MG,MG,-22.274167,-46.165278,19202,301.108,63.77113859478991,0.416623268409541,8.91201318771894,9844.27647296516,,303171,0.006952274674640175
BOREBI SP,SP,-22.5700178,-48.9714871,2621,347.989,7.531847271034429,0.0,3.39238597813796,0.0,,60756,0.0009929918327070953
BORRAZOPOLIS PR,PR,-23.9399295,-51.5842203,6749,334.378,20.18374414584692,3.85242258112313,2.57888349514563,674.62561620958,,173831,0.04037695540253193
BOSSOROCA RS,RS,-28.7278885,-54.9120278,6356,1610.056,3.947688776042572,0.0,1.11482720178372,609.925,,289351,0.0004481068695529757
BOTELHOS MG,MG,-21.65,-46.394722,14995,334.089,44.883249672991326,1.26708902967656,6.61278471711976,1112.12412358134,,240767,0.015003950626208207
BOTUCATU SP,SP,-22.8879628,-48.4410712,144820,1482.642,97.6769847340086,5.11669658886894,25.1540987187451,148330.515373436,675.0,4842900,0.061897097298942286
BOTUMIRIM MG,MG,-16.862778,-43.011111,6350,1568.884,4.04746303742023,0.0,0.0,722.936732026143,,45885,2.0743706127869634e-05
BOTUPORA BA,BA,-13.3744752,-42.5198469,10300,627.612,16.41141342103083,1.55339805825243,0.391734404074038,2450.92553191489,,85716,0.016103642214248495
BOZANO RS,RS,-28.3669953,-53.7705165,2135,200.55,10.645724258289702,0.0,0.0,4.12166666666668,,106578,4.818181784234695e-05
BRACO DO NORTE SC,SC,-28.2728633,-49.1622712,33016,212.296,155.51870972604289,2.21104918827235,25.2316890881913,13310.3514798843,206.0,1014689,0.030347522999964974
BRACO DO TROMBUDO SC,SC,-27.358578,-49.882145,3718,89.411,41.58325038306248,0.0,13.0911033930003,336.68,,140332,0.0037893707646764045
BRAGA RS,RS,-27.617348,-53.740514,3397,128.992,26.33496650955098,10.3032087135708,0.298240381747689,172.905,,79275,0.10593467595781303
BRAGANCA PA,PA,-0.9892329,-46.78317899815352,126436,2098.144,60.260878185672674,2.84729032870385,0.618705261344235,75646.7534670806,129.0,1057723,0.029895940478881666
BRAGANCA PAULISTA SP,SP,-22.9520235,-46.5418586,166753,512.584,325.31838684001065,2.20685684815266,89.4419806958048,129037.151038187,646.0,5091765,0.050422870389128606
BRAGANEY PR,PR,-24.8179919,-53.118506,5473,343.321,15.941349349442648,0.0,2.57969412198268,221.014740740741,,180493,0.0008158179704517762
BRANQUINHA AL,AL,-9.2478057,-36.0152009,10529,165.25,63.71558245083207,0.0,0.0,2936.674355263,,394964,0.0001785554570575984
BRAS PIRES MG,MG,-20.8483109,-43.2430524,4374,223.351,19.58352548231259,0.0,1.15393491807062,432.574271077759,,36318,0.000344846284099808
BRASIL NOVO PA,PA,-3.3055853,-52.539198,15190,6362.575,2.387398183911388,2.1724818959842,2.25374519421981,5097.27897363466,,228653,0.023056209151657178
BRASILANDIA DE MINAS MG,MG,-17.0096409,-46.0087622,16321,2509.694,6.503183256604192,0.0,2.05587132664167,3057.1041055813,,199900,0.0006755034671283909
BRASILANDIA DO SUL PR,PR,-24.1975793,-53.527551,2719,291.036,9.342486840116,0.0,1.131648434553,702.659265041858,,180264,0.0004035783637868317
BRASILANDIA DO TOCANTINS TO,TO,-8.3886619,-48.4842729,2191,641.467,3.415608285383348,0.0,1.81735574738755,503.672403279137,,39509,0.0005351086469436559
BRASILANDIA MS,MS,-21.255575,-52.0365617,11891,5807.224,2.04762206520706,1.68194432764276,2.61118598382749,1151.935,81.0,486624,0.018236745088457126
BRASILEIRA PI,PI,-4.131182,-41.7824969,8310,880.342,9.439513280066157,1.20336943441637,0.360187297394645,1029.63377084296,,48125,0.012482875303713831
BRASILIA DE MINAS MG,MG,-16.2075114,-44.430559,32288,1399.484,23.07136058718785,2.88032705649158,2.6586700466813,29412.5999920282,,303494,0.030474860936972246
BRASILIA DF,DF,-15.7934036,-47.8823172,3931072,17199.34,228.5594679795853,1.85674543737688,28.7707525126821,638270.041922415,25368.0,246426878,0.13866211975899173
BRASNORTE MT,MT,-12.1218837,-58.0042714,19248,15959.135,1.2060804047337153,1.61055694098088,1.98019801980198,2544.81130146644,100.0,814759,0.01747235112578421
BRAUNAS MG,MG,-19.055556,-42.716111,4835,378.318,12.78025364904657,0.0,0.0,882.756505438818,,114072,5.156970786571526e-05
BREJAO PE,PE,-9.029146,-36.566034,8999,159.786,56.31907676517342,1.55572841426825,0.667185588791282,4129.64525921637,,133583,0.016227612344761982
BREJETUBA ES,ES,-20.1465817,-41.2902303,12381,354.404,34.934707283213505,0.0,1.20928732666882,490.386666666666,,259467,0.000461481705625225
BREJINHO DE NAZARE TO,TO,-11.0138265,-48.564626,5475,1724.45,3.174925338513729,0.91324200913242,0.363834818992178,514.824444444444,,89577,0.009523044420817065
BREJINHO PE,PE,-7.3491144,-37.2871181,7486,106.276,70.43923369340209,0.935078813785733,0.133564845732603,758.488297422898,,53110,0.009665284014060149
BREJINHO RN,RN,-6.1957907,-35.3583019,12609,61.559,204.827888692149,1.11031802680625,0.393731789904717,2638.65954034473,,134121,0.011575661726602316
BREJO DA MADRE DE DEUS PE,PE,-8.1409718,-36.3712527,50249,762.345,65.91372672477684,0.616927700053732,1.35982026723424,760.402720306514,,325591,0.006870066535962075
BREJO DE AREIA MA,MA,-4.3316785,-45.5833334,9367,986.036,9.499653156679878,0.0,0.0,774.566554809843,,62176,2.8108546849872994e-05
BREJO DO CRUZ PB,PB,-6.330942,-37.488316626886096,13993,399.02,35.068417623176785,1.78660758950904,0.283245999150262,3930.67041524179,,112840,0.018480088858140956
BREJO DO PIAUI PI,PI,-8.207583,-42.8359849,3902,2267.326,1.7209699884357168,0.0,0.516129032258065,64.6222222222221,,29533,0.0001602495515327846
BREJO DOS SANTOS PB,PB,-6.3769367,-37.8243125,6433,93.846,68.54847303028366,2.79807243898648,0.620251201736703,528.583185742133,,47873,0.0289343794245636
BREJO GRANDE DO ARAGUAIA PA,PA,-5.7011449,-48.4037308,7392,1288.477,5.7370057827962775,3.24675324675325,0.0,1373.90380854627,,76307,0.033378652738206255
BREJO GRANDE SE,SE,-10.4287358,-36.4667918,8264,143.887,57.43395859250662,0.0,0.3610542784932,577.960204678363,,76170,0.0001371965613849365
BREJO MA,MA,-3.6804397,-42.7529313,36139,1074.236,33.64158341370052,1.02382467694181,0.769294172596643,6528.14244998432,,228852,0.01083709187761631
BREJO SANTO CE,CE,-7.4909841,-38.9859152,49109,663.429,74.0229926638721,4.78527357510843,2.54663783171979,95551.227942943,132.0,685237,0.05017935409417787
BREJOLANDIA BA,BA,-12.4843845,-43.9611861,10493,2247.208,4.66934969971627,3.33555703802535,0.0947238798901203,1289.19132358825,,85591,0.03432182466189923
BREU BRANCO PA,PA,-3.7785073,-49.5684795,64738,3941.911,16.42299889571327,0.67966264018042,0.575356569663568,4410.72764519535,55.0,536481,0.007386423155710016
BREVES PA,PA,-1.68036,-50.479085,101891,9566.572,10.650732571709073,1.54086229402008,0.360269130777694,80606.929163224,,685738,0.01623720256091815
BRITANIA GO,GO,-15.2427599,-51.1602061,5761,1463.006,3.9377828935766495,3.9923624370769,1.2112822287593,947.744912960697,,104170,0.041393404994593895
BROCHIER RS,RS,-29.556766,-51.5963047,5043,105.353,47.86764496502236,3.3710093198493,9.26290894757588,214.224573976626,,80591,0.03729306571382535
BROTAS DE MACAUBAS BA,BA,-12.0019007,-42.6257506,10341,2370.486,4.36239657184223,1.45053669857847,1.36839018668752,492.061206769684,,68481,0.015317435707044951
BROTAS SP,SP,-22.2840884,-48.1267265,24163,1101.374,21.938959881021344,1.69680917104664,20.8990697865017,11324.5797717605,,670395,0.023677499367583198
BRUMADO BA,BA,-14.2950215,-41.65923973294132,67048,2207.612,30.371279010985624,1.67044505428946,6.8755115708014,70566.1979117044,311.0,1370329,0.01973184586978191
BRUNOPOLIS SC,SC,-27.310953,-50.837585,2473,336.294,7.353684573617133,0.0,2.06611570247934,0.0,,76237,0.0006225135637479882
BRUSQUE SC,SC,-27.0964628,-48.9136323,160144,754.295,212.3095075534108,1.75467079628334,30.408849762822,88747.5017362038,1302.0,6309696,0.0295277850242189
BUENO BRANDAO MG,MG,-22.441976,-46.3517971,11010,356.15,30.91394075529973,2.36148955495005,7.36296700299973,782.058699186991,,145540,0.026413907186623793
BUENOPOLIS MG,MG,-17.8756607,-44.1749365,10377,1599.881,6.48610740423819,0.0,0.964785335262904,2863.22119432056,,112758,0.0003255684235739081
